[
	{
		"ident": "03N",
		"name": "Utirik Airport",
		"latitude_deg": 11.222,
		"longitude_deg": 169.852005,
		"elevation_ft": 4,
		"continent": "OC",
		"iso_country": "MH",
		"iso_region": "MH-UTI",
		"municipality": "Utirik Island",
		"gps_code": "K03N",
		"iata_code": "UTK"
	},
	{
		"ident": "0AK",
		"name": "Pilot Station Airport",
		"latitude_deg": 61.934601,
		"longitude_deg": -162.899994,
		"elevation_ft": 305,
		"continent": "NA",
		"iso_country": "US",
		"iso_region": "US-AK",
		"municipality": "Pilot Station",
		"gps_code": "",
		"iata_code": "PQS"
	},
	{
		"ident": "16A",
		"name": "Nunapitchuk Airport",
		"latitude_deg": 60.905591,
		"longitude_deg": -162.440454,
		"elevation_ft": 12,
		"continent": "NA",
		"iso_country": "US",
		"iso_region": "US-AK",
		"municipality": "Nunapitchuk",
		"gps_code": "PPIT",
		"iata_code": "NUP"
	},
	{
		"ident": "19P",
		"name": "Port Protection Seaplane Base",
		"latitude_deg": 56.328800201416,
		"longitude_deg": -133.61000061035,
		"elevation_ft": 0,
		"continent": "NA",
		"iso_country": "US",
		"iso_region": "US-AK",
		"municipality": "Port Protection",
		"gps_code": "19P",
		"iata_code": "PPV"
	},
	{
		"ident": "4A2",
		"name": "Atmautluak Airport",
		"latitude_deg": 60.866699,
		"longitude_deg": -162.272995,
		"elevation_ft": 17,
		"continent": "NA",
		"iso_country": "US",
		"iso_region": "US-AK",
		"municipality": "Atmautluak",
		"gps_code": "",
		"iata_code": "ATT"
	},
	{
		"ident": "4K5",
		"name": "Ouzinkie Airport",
		"latitude_deg": 57.925362,
		"longitude_deg": -152.496715,
		"elevation_ft": 55,
		"continent": "NA",
		"iso_country": "US",
		"iso_region": "US-AK",
		"municipality": "Ouzinkie",
		"gps_code": "",
		"iata_code": "KOZ"
	},
	{
		"ident": "4Z7",
		"name": "Hyder Seaplane Base",
		"latitude_deg": 55.903324,
		"longitude_deg": -130.009975,
		"elevation_ft": "",
		"continent": "NA",
		"iso_country": "US",
		"iso_region": "US-AK",
		"municipality": "Hyder",
		"gps_code": "",
		"iata_code": "WHD"
	},
	{
		"ident": "5A8",
		"name": "Aleknagik / New Airport",
		"latitude_deg": 59.2826004028,
		"longitude_deg": -158.617996216,
		"elevation_ft": 66,
		"continent": "NA",
		"iso_country": "US",
		"iso_region": "US-AK",
		"municipality": "Aleknagik",
		"gps_code": "5A8",
		"iata_code": "WKK"
	},
	{
		"ident": "5KE",
		"name": "Ketchikan Harbor Seaplane Base",
		"latitude_deg": 55.349899,
		"longitude_deg": -131.677002,
		"elevation_ft": "",
		"continent": "NA",
		"iso_country": "US",
		"iso_region": "US-AK",
		"municipality": "Ketchikan",
		"gps_code": "",
		"iata_code": "WFB"
	},
	{
		"ident": "6N5",
		"name": "East 34th Street Heliport",
		"latitude_deg": 40.74259948730469,
		"longitude_deg": -73.97209930419922,
		"elevation_ft": 10,
		"continent": "NA",
		"iso_country": "US",
		"iso_region": "US-NY",
		"municipality": "New York",
		"gps_code": "6N5",
		"iata_code": "TSS"
	},
	{
		"ident": "6N7",
		"name": "New York Skyports Inc Seaplane Base",
		"latitude_deg": 40.734001,
		"longitude_deg": -73.9729,
		"elevation_ft": "",
		"continent": "NA",
		"iso_country": "US",
		"iso_region": "US-NY",
		"municipality": "New York",
		"gps_code": "",
		"iata_code": "QNY"
	},
	{
		"ident": "7KA",
		"name": "Tatitlek Airport",
		"latitude_deg": 60.871449,
		"longitude_deg": -146.690297,
		"elevation_ft": 62,
		"continent": "NA",
		"iso_country": "US",
		"iso_region": "US-AK",
		"municipality": "Tatitlek",
		"gps_code": "PAKA",
		"iata_code": "TEK"
	},
	{
		"ident": "9A3",
		"name": "Chuathbaluk Airport",
		"latitude_deg": 61.579102,
		"longitude_deg": -159.216003,
		"elevation_ft": 244,
		"continent": "NA",
		"iso_country": "US",
		"iso_region": "US-AK",
		"municipality": "Chuathbaluk",
		"gps_code": "PACH",
		"iata_code": "CHU"
	},
	{
		"ident": "A79",
		"name": "Chignik Lake Airport",
		"latitude_deg": 56.2550010681,
		"longitude_deg": -158.774993896,
		"elevation_ft": 50,
		"continent": "NA",
		"iso_country": "US",
		"iso_region": "US-AK",
		"municipality": "Chignik Lake",
		"gps_code": "A79",
		"iata_code": "KCQ"
	},
	{
		"ident": "AEI",
		"name": "Algeciras Heliport",
		"latitude_deg": 36.12888,
		"longitude_deg": -5.441118,
		"elevation_ft": 98,
		"continent": "EU",
		"iso_country": "ES",
		"iso_region": "ES-CA",
		"municipality": "Algeciras",
		"gps_code": "LEAG",
		"iata_code": "AEI"
	},
	{
		"ident": "AGAF",
		"name": "Afutara Aerodrome",
		"latitude_deg": -9.19138888889,
		"longitude_deg": 160.948611111,
		"elevation_ft": 23,
		"continent": "OC",
		"iso_country": "SB",
		"iso_region": "SB-ML",
		"municipality": "Bila",
		"gps_code": "AGAF",
		"iata_code": "AFT"
	},
	{
		"ident": "AGAT",
		"name": "Uru Harbour Airport",
		"latitude_deg": -8.87333,
		"longitude_deg": 161.011002,
		"elevation_ft": "",
		"continent": "OC",
		"iso_country": "SB",
		"iso_region": "SB-ML",
		"municipality": "Atoifi",
		"gps_code": "AGAT",
		"iata_code": "ATD"
	},
	{
		"ident": "AGGA",
		"name": "Gwaunaru'u Airport",
		"latitude_deg": -8.70257,
		"longitude_deg": 160.682007,
		"elevation_ft": 5,
		"continent": "OC",
		"iso_country": "SB",
		"iso_region": "SB-ML",
		"municipality": "Auki",
		"gps_code": "AGGA",
		"iata_code": "AKS"
	},
	{
		"ident": "AGGB",
		"name": "Bellona/Anua Airport",
		"latitude_deg": -11.302222222200001,
		"longitude_deg": 159.798333333,
		"elevation_ft": 60,
		"continent": "OC",
		"iso_country": "SB",
		"iso_region": "SB-RB",
		"municipality": "Anua",
		"gps_code": "AGGB",
		"iata_code": "BNY"
	},
	{
		"ident": "AGGC",
		"name": "Choiseul Bay Airport",
		"latitude_deg": -6.711944,
		"longitude_deg": 156.396111,
		"elevation_ft": "",
		"continent": "OC",
		"iso_country": "SB",
		"iso_region": "SB-CH",
		"municipality": "",
		"gps_code": "AGGC",
		"iata_code": "CHY"
	},
	{
		"ident": "AGGE",
		"name": "Ballalae Airport",
		"latitude_deg": -6.990745,
		"longitude_deg": 155.886656,
		"elevation_ft": 5,
		"continent": "OC",
		"iso_country": "SB",
		"iso_region": "SB-WE",
		"municipality": "Ballalae",
		"gps_code": "AGGE",
		"iata_code": "BAS"
	},
	{
		"ident": "AGGF",
		"name": "Fera/Maringe Airport",
		"latitude_deg": -8.1075,
		"longitude_deg": 159.576996,
		"elevation_ft": "",
		"continent": "OC",
		"iso_country": "SB",
		"iso_region": "SB-IS",
		"municipality": "Fera Island",
		"gps_code": "AGGF",
		"iata_code": "FRE"
	},
	{
		"ident": "AGGH",
		"name": "Honiara International Airport",
		"latitude_deg": -9.4280004501343,
		"longitude_deg": 160.05499267578,
		"elevation_ft": 28,
		"continent": "OC",
		"iso_country": "SB",
		"iso_region": "SB-CT",
		"municipality": "Honiara",
		"gps_code": "AGGH",
		"iata_code": "HIR"
	},
	{
		"ident": "AGGI",
		"name": "Babanakira Airport",
		"latitude_deg": -9.7475004196167,
		"longitude_deg": 159.83900451660156,
		"elevation_ft": "",
		"continent": "OC",
		"iso_country": "SB",
		"iso_region": "SB-GU",
		"municipality": "Mbambanakira",
		"gps_code": "AGGI",
		"iata_code": "MBU"
	},
	{
		"ident": "AGGK",
		"name": "Ngorangora Airport",
		"latitude_deg": -10.449700355500001,
		"longitude_deg": 161.897994995,
		"elevation_ft": 54,
		"continent": "OC",
		"iso_country": "SB",
		"iso_region": "SB-MK",
		"municipality": "Kirakira",
		"gps_code": "AGGK",
		"iata_code": "IRA"
	},
	{
		"ident": "AGGL",
		"name": "Santa Cruz/Graciosa Bay/Luova Airport",
		"latitude_deg": -10.72029972076416,
		"longitude_deg": 165.7949981689453,
		"elevation_ft": 18,
		"continent": "OC",
		"iso_country": "SB",
		"iso_region": "SB-TE",
		"municipality": "Santa Cruz/Graciosa Bay/Luova",
		"gps_code": "AGGL",
		"iata_code": "SCZ"
	},
	{
		"ident": "AGGM",
		"name": "Munda Airport",
		"latitude_deg": -8.327969551086426,
		"longitude_deg": 157.26300048828125,
		"elevation_ft": 10,
		"continent": "OC",
		"iso_country": "SB",
		"iso_region": "SB-WE",
		"municipality": "",
		"gps_code": "AGGM",
		"iata_code": "MUA"
	},
	{
		"ident": "AGGN",
		"name": "Nusatupe Airport",
		"latitude_deg": -8.09778022766,
		"longitude_deg": 156.863998413,
		"elevation_ft": 13,
		"continent": "OC",
		"iso_country": "SB",
		"iso_region": "SB-WE",
		"municipality": "Gizo",
		"gps_code": "AGGN",
		"iata_code": "GZO"
	},
	{
		"ident": "AGGO",
		"name": "Mono Airport",
		"latitude_deg": -7.416940212249756,
		"longitude_deg": 155.56500244140625,
		"elevation_ft": "",
		"continent": "OC",
		"iso_country": "SB",
		"iso_region": "SB-WE",
		"municipality": "Stirling Island",
		"gps_code": "AGGO",
		"iata_code": "MNY"
	},
	{
		"ident": "AGGR",
		"name": "Rennell/Tingoa Airport",
		"latitude_deg": -11.533900260925293,
		"longitude_deg": 160.06300354003906,
		"elevation_ft": "",
		"continent": "OC",
		"iso_country": "SB",
		"iso_region": "SB-RB",
		"municipality": "Rennell Island",
		"gps_code": "AGGR",
		"iata_code": "RNL"
	},
	{
		"ident": "AGGT",
		"name": "Santa Ana Airport",
		"latitude_deg": -10.847994,
		"longitude_deg": 162.454108,
		"elevation_ft": 3,
		"continent": "OC",
		"iso_country": "SB",
		"iso_region": "SB-MK",
		"municipality": "Santa Ana Island",
		"gps_code": "AGGT",
		"iata_code": "NNB"
	},
	{
		"ident": "AGGU",
		"name": "Marau Airport",
		"latitude_deg": -9.861669540409999,
		"longitude_deg": 160.824996948,
		"elevation_ft": "",
		"continent": "OC",
		"iso_country": "SB",
		"iso_region": "SB-GU",
		"municipality": "Marau",
		"gps_code": "AGGU",
		"iata_code": "RUS"
	},
	{
		"ident": "AGGV",
		"name": "Suavanao Airport",
		"latitude_deg": -7.585559844970703,
		"longitude_deg": 158.7310028076172,
		"elevation_ft": "",
		"continent": "OC",
		"iso_country": "SB",
		"iso_region": "SB-IS",
		"municipality": "Suavanao",
		"gps_code": "AGGV",
		"iata_code": "VAO"
	},
	{
		"ident": "AGGY",
		"name": "Yandina Airport",
		"latitude_deg": -9.092816,
		"longitude_deg": 159.21841,
		"elevation_ft": 60,
		"continent": "OC",
		"iso_country": "SB",
		"iso_region": "SB-CE",
		"municipality": "Yandina",
		"gps_code": "AGGY",
		"iata_code": "XYA"
	},
	{
		"ident": "AGKG",
		"name": "Kaghau Airport",
		"latitude_deg": -7.3305,
		"longitude_deg": 157.585,
		"elevation_ft": 30,
		"continent": "OC",
		"iso_country": "SB",
		"iso_region": "SB-CH",
		"municipality": "Kagau Island",
		"gps_code": "AGKG",
		"iata_code": "KGE"
	},
	{
		"ident": "AGRM",
		"name": "Ramata Airport",
		"latitude_deg": -8.168060302734375,
		"longitude_deg": 157.64300537109375,
		"elevation_ft": "",
		"continent": "OC",
		"iso_country": "SB",
		"iso_region": "SB-WE",
		"municipality": "Ramata",
		"gps_code": "AGRM",
		"iata_code": "RBV"
	},
	{
		"ident": "AIP",
		"name": "Ailinglaplap Airok Airport",
		"latitude_deg": 7.279422,
		"longitude_deg": 168.8257,
		"elevation_ft": 16,
		"continent": "OC",
		"iso_country": "MH",
		"iso_region": "MH-ALL",
		"municipality": "Bigatyelang Island",
		"gps_code": "",
		"iata_code": "AIC"
	},
	{
		"ident": "AK81",
		"name": "Amook Bay Seaplane Base",
		"latitude_deg": 57.4715003967,
		"longitude_deg": -153.815002441,
		"elevation_ft": "",
		"continent": "NA",
		"iso_country": "US",
		"iso_region": "US-AK",
		"municipality": "Amook Bay",
		"gps_code": "AK81",
		"iata_code": "AOS"
	},
	{
		"ident": "AMC",
		"name": "Mar de Cortés International Airport",
		"latitude_deg": 31.351987,
		"longitude_deg": -113.305177,
		"elevation_ft": 71,
		"continent": "NA",
		"iso_country": "MX",
		"iso_region": "MX-SON",
		"municipality": "Puerto Peñasco",
		"gps_code": "MMPE",
		"iata_code": "PPE"
	},
	{
		"ident": "ANYN",
		"name": "Nauru International Airport",
		"latitude_deg": -0.547458,
		"longitude_deg": 166.919006,
		"elevation_ft": 22,
		"continent": "OC",
		"iso_country": "NR",
		"iso_region": "NR-14",
		"municipality": "Yaren District",
		"gps_code": "ANYN",
		"iata_code": "INU"
	},
	{
		"ident": "ATP",
		"name": "Aitape Airport",
		"latitude_deg": -3.1436111111100002,
		"longitude_deg": 142.346805556,
		"elevation_ft": 10,
		"continent": "OC",
		"iso_country": "PG",
		"iso_region": "PG-SAN",
		"municipality": "Aitape",
		"gps_code": "AYAI",
		"iata_code": "ATP"
	},
	{
		"ident": "AU-HIS",
		"name": "Hayman Island Resort Seaplane Base",
		"latitude_deg": -20.059999465942383,
		"longitude_deg": 148.88099670410156,
		"elevation_ft": "",
		"continent": "OC",
		"iso_country": "AU",
		"iso_region": "AU-QLD",
		"municipality": "Hayman Island",
		"gps_code": "",
		"iata_code": "HIS"
	},
	{
		"ident": "AXF",
		"name": "Alxa Left Banner Bayanhot Airport",
		"latitude_deg": 38.74831,
		"longitude_deg": 105.58858,
		"elevation_ft": 4560,
		"continent": "AS",
		"iso_country": "CN",
		"iso_region": "CN-15",
		"municipality": "Bayanhot",
		"gps_code": "ZBAL",
		"iata_code": "AXF"
	},
	{
		"ident": "AYBK",
		"name": "Buka Airport",
		"latitude_deg": -5.4223198890686035,
		"longitude_deg": 154.67300415039062,
		"elevation_ft": 11,
		"continent": "OC",
		"iso_country": "PG",
		"iso_region": "PG-NSB",
		"municipality": "Buka Island",
		"gps_code": "AYBK",
		"iata_code": "BUA"
	},
	{
		"ident": "AYCH",
		"name": "Chimbu Airport",
		"latitude_deg": -6.024290084838867,
		"longitude_deg": 144.9709930419922,
		"elevation_ft": 4974,
		"continent": "OC",
		"iso_country": "PG",
		"iso_region": "PG-CPK",
		"municipality": "Kundiawa",
		"gps_code": "AYCH",
		"iata_code": "CMU"
	},
	{
		"ident": "AYDU",
		"name": "Daru Airport",
		"latitude_deg": -9.08675956726,
		"longitude_deg": 143.207992554,
		"elevation_ft": 20,
		"continent": "OC",
		"iso_country": "PG",
		"iso_region": "PG-WPD",
		"municipality": "Daru",
		"gps_code": "AYDU",
		"iata_code": "DAU"
	},
	{
		"ident": "AYGA",
		"name": "Goroka Airport",
		"latitude_deg": -6.081689834590001,
		"longitude_deg": 145.391998291,
		"elevation_ft": 5282,
		"continent": "OC",
		"iso_country": "PG",
		"iso_region": "PG-EHG",
		"municipality": "Goronka",
		"gps_code": "AYGA",
		"iata_code": "GKA"
	},
	{
		"ident": "AYGN",
		"name": "Gurney Airport",
		"latitude_deg": -10.3114995956,
		"longitude_deg": 150.333999634,
		"elevation_ft": 88,
		"continent": "OC",
		"iso_country": "PG",
		"iso_region": "PG-MBA",
		"municipality": "Gurney",
		"gps_code": "AYGN",
		"iata_code": "GUR"
	},
	{
		"ident": "AYGR",
		"name": "Girua Airport",
		"latitude_deg": -8.80453968048,
		"longitude_deg": 148.309005737,
		"elevation_ft": 311,
		"continent": "OC",
		"iso_country": "PG",
		"iso_region": "PG-NPP",
		"municipality": "Popondetta",
		"gps_code": "AYGR",
		"iata_code": "PNP"
	},
	{
		"ident": "AYHK",
		"name": "Kimbe Airport",
		"latitude_deg": -5.462170124053955,
		"longitude_deg": 150.40499877929688,
		"elevation_ft": 66,
		"continent": "OC",
		"iso_country": "PG",
		"iso_region": "PG-WBK",
		"municipality": "Hoskins",
		"gps_code": "AYHK",
		"iata_code": "HKN"
	},
	{
		"ident": "AYIQ",
		"name": "Aropa Airport",
		"latitude_deg": -6.305417,
		"longitude_deg": 155.728139,
		"elevation_ft": 20,
		"continent": "OC",
		"iso_country": "PG",
		"iso_region": "PG-NSB",
		"municipality": "Kieta",
		"gps_code": "AYIQ",
		"iata_code": "KIE"
	},
	{
		"ident": "AYKA",
		"name": "Losuia Airport",
		"latitude_deg": -8.505820274353027,
		"longitude_deg": 151.08099365234375,
		"elevation_ft": 27,
		"continent": "OC",
		"iso_country": "PG",
		"iso_region": "PG-MBA",
		"municipality": "Losuia",
		"gps_code": "AYKA",
		"iata_code": "LSA"
	},
	{
		"ident": "AYKI",
		"name": "Kiunga Airport",
		"latitude_deg": -6.1257100105285645,
		"longitude_deg": 141.28199768066406,
		"elevation_ft": 88,
		"continent": "OC",
		"iso_country": "PG",
		"iso_region": "PG-WPD",
		"municipality": "Kiunga",
		"gps_code": "AYKI",
		"iata_code": "UNG"
	},
	{
		"ident": "AYKK",
		"name": "Kikori Airport",
		"latitude_deg": -7.424379825592041,
		"longitude_deg": 144.2500762939453,
		"elevation_ft": 50,
		"continent": "OC",
		"iso_country": "PG",
		"iso_region": "PG-GPK",
		"municipality": "Kikori",
		"gps_code": "AYKK",
		"iata_code": "KRI"
	},
	{
		"ident": "AYKM",
		"name": "Kerema Airport",
		"latitude_deg": -7.96361017227,
		"longitude_deg": 145.770996094,
		"elevation_ft": 10,
		"continent": "OC",
		"iso_country": "PG",
		"iso_region": "PG-GPK",
		"municipality": "Kerema",
		"gps_code": "AYKM",
		"iata_code": "KMA"
	},
	{
		"ident": "AYKV",
		"name": "Kavieng Airport",
		"latitude_deg": -2.57940006256,
		"longitude_deg": 150.807998657,
		"elevation_ft": 7,
		"continent": "OC",
		"iso_country": "PG",
		"iso_region": "PG-NIK",
		"municipality": "Kavieng",
		"gps_code": "AYKV",
		"iata_code": "KVG"
	},
	{
		"ident": "AYKY",
		"name": "Londolovit Airport",
		"latitude_deg": -3.04361009598,
		"longitude_deg": 152.628997803,
		"elevation_ft": 167,
		"continent": "OC",
		"iso_country": "PG",
		"iso_region": "PG-NIK",
		"municipality": "Londolovit",
		"gps_code": "AYKY",
		"iata_code": "LNV"
	},
	{
		"ident": "AYMD",
		"name": "Madang Airport",
		"latitude_deg": -5.20707988739,
		"longitude_deg": 145.789001465,
		"elevation_ft": 20,
		"continent": "OC",
		"iso_country": "PG",
		"iso_region": "PG-MPM",
		"municipality": "Madang",
		"gps_code": "AYMD",
		"iata_code": "MAG"
	},
	{
		"ident": "AYMH",
		"name": "Mount Hagen Kagamuga Airport",
		"latitude_deg": -5.826789855957031,
		"longitude_deg": 144.29600524902344,
		"elevation_ft": 5388,
		"continent": "OC",
		"iso_country": "PG",
		"iso_region": "PG-WHM",
		"municipality": "Mount Hagen",
		"gps_code": "AYMH",
		"iata_code": "HGU"
	},
	{
		"ident": "AYMN",
		"name": "Mendi Airport",
		"latitude_deg": -6.14774,
		"longitude_deg": 143.656998,
		"elevation_ft": 5680,
		"continent": "OC",
		"iso_country": "PG",
		"iso_region": "PG-SHM",
		"municipality": "Mendi",
		"gps_code": "AYMN",
		"iata_code": "MDU"
	},
	{
		"ident": "AYMO",
		"name": "Momote Airport",
		"latitude_deg": -2.06189,
		"longitude_deg": 147.423996,
		"elevation_ft": 12,
		"continent": "OC",
		"iso_country": "PG",
		"iso_region": "PG-MRL",
		"municipality": "Manus Island",
		"gps_code": "AYMO",
		"iata_code": "MAS"
	},
	{
		"ident": "AYMR",
		"name": "Moro Airport",
		"latitude_deg": -6.36332988739,
		"longitude_deg": 143.238006592,
		"elevation_ft": 2740,
		"continent": "OC",
		"iso_country": "PG",
		"iso_region": "PG-SHM",
		"municipality": "Moro",
		"gps_code": "AYMR",
		"iata_code": "MXH"
	},
	{
		"ident": "AYMS",
		"name": "Misima Island Airport",
		"latitude_deg": -10.689200401299999,
		"longitude_deg": 152.837997437,
		"elevation_ft": 26,
		"continent": "OC",
		"iso_country": "PG",
		"iso_region": "PG-MBA",
		"municipality": "Misima Island",
		"gps_code": "AYMS",
		"iata_code": "MIS"
	},
	{
		"ident": "AYNZ",
		"name": "Nadzab Airport",
		"latitude_deg": -6.569803,
		"longitude_deg": 146.725977,
		"elevation_ft": 239,
		"continent": "OC",
		"iso_country": "PG",
		"iso_region": "PG-MPL",
		"municipality": "Lae",
		"gps_code": "AYNZ",
		"iata_code": "LAE"
	},
	{
		"ident": "AYPY",
		"name": "Port Moresby Jacksons International Airport",
		"latitude_deg": -9.443380355834961,
		"longitude_deg": 147.22000122070312,
		"elevation_ft": 146,
		"continent": "OC",
		"iso_country": "PG",
		"iso_region": "PG-NCD",
		"municipality": "Port Moresby",
		"gps_code": "AYPY",
		"iata_code": "POM"
	},
	{
		"ident": "AYTA",
		"name": "Tari Airport",
		"latitude_deg": -5.84499979019,
		"longitude_deg": 142.947998047,
		"elevation_ft": 5500,
		"continent": "OC",
		"iso_country": "PG",
		"iso_region": "PG-HE",
		"municipality": "Tari",
		"gps_code": "AYTA",
		"iata_code": "TIZ"
	},
	{
		"ident": "AYTB",
		"name": "Tabubil Airport",
		"latitude_deg": -5.27861,
		"longitude_deg": 141.225998,
		"elevation_ft": 1570,
		"continent": "OC",
		"iso_country": "PG",
		"iso_region": "PG-WPD",
		"municipality": "Tabubil",
		"gps_code": "AYTB",
		"iata_code": "TBG"
	},
	{
		"ident": "AYTI",
		"name": "Tapini Airport",
		"latitude_deg": -8.35666666667,
		"longitude_deg": 146.989166667,
		"elevation_ft": 3100,
		"continent": "OC",
		"iso_country": "PG",
		"iso_region": "PG-CPM",
		"municipality": "Tapini",
		"gps_code": "AYTI",
		"iata_code": "TPI"
	},
	{
		"ident": "AYTK",
		"name": "Tokua Airport",
		"latitude_deg": -4.34045982361,
		"longitude_deg": 152.380004883,
		"elevation_ft": 32,
		"continent": "OC",
		"iso_country": "PG",
		"iso_region": "PG-EBR",
		"municipality": "Tokua",
		"gps_code": "AYTK",
		"iata_code": "RAB"
	},
	{
		"ident": "AYVN",
		"name": "Vanimo Airport",
		"latitude_deg": -2.6926,
		"longitude_deg": 141.3028,
		"elevation_ft": 10,
		"continent": "OC",
		"iso_country": "PG",
		"iso_region": "PG-SAN",
		"municipality": "Vanimo",
		"gps_code": "AYVN",
		"iata_code": "VAI"
	},
	{
		"ident": "AYWD",
		"name": "Wapenamanda Airport",
		"latitude_deg": -5.6433000564575195,
		"longitude_deg": 143.89500427246094,
		"elevation_ft": 5889,
		"continent": "OC",
		"iso_country": "PG",
		"iso_region": "PG-EPW",
		"municipality": "",
		"gps_code": "AYWD",
		"iata_code": "WBM"
	},
	{
		"ident": "AYWK",
		"name": "Wewak International Airport",
		"latitude_deg": -3.58383011818,
		"longitude_deg": 143.669006348,
		"elevation_ft": 19,
		"continent": "OC",
		"iso_country": "PG",
		"iso_region": "PG-ESW",
		"municipality": "Wewak",
		"gps_code": "AYWK",
		"iata_code": "WWK"
	},
	{
		"ident": "AYWT",
		"name": "Woitape Airport",
		"latitude_deg": -8.54583333333,
		"longitude_deg": 147.2525,
		"elevation_ft": 5200,
		"continent": "OC",
		"iso_country": "PG",
		"iso_region": "PG-CPM",
		"municipality": "Fatima Mission",
		"gps_code": "AYWT",
		"iata_code": "WTP"
	},
	{
		"ident": "AYYR",
		"name": "Yasuru Airport",
		"latitude_deg": -6.6015,
		"longitude_deg": 146.1813,
		"elevation_ft": 1520,
		"continent": "OC",
		"iso_country": "PG",
		"iso_region": "PG-MPL",
		"municipality": "Yasuru",
		"gps_code": "AYYR",
		"iata_code": "KSX"
	},
	{
		"ident": "BBG",
		"name": "Branson Airport",
		"latitude_deg": 36.532082,
		"longitude_deg": -93.200544,
		"elevation_ft": 1302,
		"continent": "NA",
		"iso_country": "US",
		"iso_region": "US-MO",
		"municipality": "Branson",
		"gps_code": "KBBG",
		"iata_code": "BKG"
	},
	{
		"ident": "BCW",
		"name": "Benguera Island Airport",
		"latitude_deg": -21.853300094604492,
		"longitude_deg": 35.43830108642578,
		"elevation_ft": "",
		"continent": "AF",
		"iso_country": "MZ",
		"iso_region": "MZ-I",
		"municipality": "Benguera Island",
		"gps_code": "",
		"iata_code": "BCW"
	},
	{
		"ident": "BGAA",
		"name": "Aasiaat Airport",
		"latitude_deg": 68.7218017578,
		"longitude_deg": -52.7846984863,
		"elevation_ft": 74,
		"continent": "NA",
		"iso_country": "GL",
		"iso_region": "GL-U-A",
		"municipality": "Aasiaat",
		"gps_code": "BGAA",
		"iata_code": "JEG"
	},
	{
		"ident": "BGAG",
		"name": "Aappilattoq (Qaasuitsup) Heliport",
		"latitude_deg": 72.88703,
		"longitude_deg": -55.596287,
		"elevation_ft": 42,
		"continent": "NA",
		"iso_country": "GL",
		"iso_region": "GL-U-A",
		"municipality": "Qaasuitsup",
		"gps_code": "BGAG",
		"iata_code": "AOQ"
	},
	{
		"ident": "BGAM",
		"name": "Tasiilaq Heliport",
		"latitude_deg": 65.612296,
		"longitude_deg": -37.618335,
		"elevation_ft": 24,
		"continent": "NA",
		"iso_country": "GL",
		"iso_region": "GL-U-A",
		"municipality": "Tasiilaq",
		"gps_code": "BGAM",
		"iata_code": "AGM"
	},
	{
		"ident": "BGAP",
		"name": "Alluitsup Paa Heliport",
		"latitude_deg": 60.46445,
		"longitude_deg": -45.56917,
		"elevation_ft": 54,
		"continent": "NA",
		"iso_country": "GL",
		"iso_region": "GL-U-A",
		"municipality": "Alluitsup Paa",
		"gps_code": "BGAP",
		"iata_code": "LLU"
	},
	{
		"ident": "BGAT",
		"name": "Attu Heliport",
		"latitude_deg": 67.9406628551,
		"longitude_deg": -53.6218696833,
		"elevation_ft": 32,
		"continent": "NA",
		"iso_country": "GL",
		"iso_region": "GL-U-A",
		"municipality": "Attu",
		"gps_code": "BGAT",
		"iata_code": "QGQ"
	},
	{
		"ident": "BGBW",
		"name": "Narsarsuaq Airport",
		"latitude_deg": 61.1604995728,
		"longitude_deg": -45.4259986877,
		"elevation_ft": 112,
		"continent": "NA",
		"iso_country": "GL",
		"iso_region": "GL-U-A",
		"municipality": "Narsarsuaq",
		"gps_code": "BGBW",
		"iata_code": "UAK"
	},
	{
		"ident": "BGCH",
		"name": "Qasigiannguit Heliport",
		"latitude_deg": 68.822815547,
		"longitude_deg": -51.1734473705,
		"elevation_ft": 70,
		"continent": "NA",
		"iso_country": "GL",
		"iso_region": "GL-U-A",
		"municipality": "Qasigiannguit",
		"gps_code": "BGCH",
		"iata_code": "JCH"
	},
	{
		"ident": "BGCO",
		"name": "Neerlerit Inaat Airport",
		"latitude_deg": 70.7431030273,
		"longitude_deg": -22.6504993439,
		"elevation_ft": 45,
		"continent": "NA",
		"iso_country": "GL",
		"iso_region": "GL-U-A",
		"municipality": "Neerlerit Inaat",
		"gps_code": "BGCO",
		"iata_code": "CNP"
	},
	{
		"ident": "BGET",
		"name": "Eqalugaarsuit Heliport",
		"latitude_deg": 60.6197196536,
		"longitude_deg": -45.9140619636,
		"elevation_ft": 9,
		"continent": "NA",
		"iso_country": "GL",
		"iso_region": "GL-U-A",
		"municipality": "Eqalugaarsuit",
		"gps_code": "BGET",
		"iata_code": "QFG"
	},
	{
		"ident": "BGGH",
		"name": "Godthaab / Nuuk Airport",
		"latitude_deg": 64.19090271,
		"longitude_deg": -51.6781005859,
		"elevation_ft": 283,
		"continent": "NA",
		"iso_country": "GL",
		"iso_region": "GL-U-A",
		"municipality": "Nuuk",
		"gps_code": "BGGH",
		"iata_code": "GOH"
	},
	{
		"ident": "BGGN",
		"name": "Qeqertarsuaq Heliport",
		"latitude_deg": 69.251181993,
		"longitude_deg": -53.5148763657,
		"elevation_ft": 9,
		"continent": "NA",
		"iso_country": "GL",
		"iso_region": "GL-U-A",
		"municipality": "Qeqertarsuaq Airport",
		"gps_code": "BGGN",
		"iata_code": "JGO"
	},
	{
		"ident": "BGIG",
		"name": "Iginniarfik",
		"latitude_deg": 68.1472255861,
		"longitude_deg": -53.1735277176,
		"elevation_ft": 50,
		"continent": "NA",
		"iso_country": "GL",
		"iso_region": "GL-U-A",
		"municipality": "Iginniarfik",
		"gps_code": "BGIG",
		"iata_code": "QFI"
	},
	{
		"ident": "BGIK",
		"name": "Ikerassaarsuk Heliport",
		"latitude_deg": 68.14088100629999,
		"longitude_deg": -53.4414589405,
		"elevation_ft": 165,
		"continent": "NA",
		"iso_country": "GL",
		"iso_region": "GL-U-A",
		"municipality": "Ikerassaarsuk",
		"gps_code": "BGIK",
		"iata_code": "QRY"
	},
	{
		"ident": "BGIL",
		"name": "Ilimanaq Heliport",
		"latitude_deg": 69.0809150007,
		"longitude_deg": -51.1143153906,
		"elevation_ft": 52,
		"continent": "NA",
		"iso_country": "GL",
		"iso_region": "GL-U-A",
		"municipality": "Ilimanaq",
		"gps_code": "BGIL",
		"iata_code": "XIQ"
	},
	{
		"ident": "BGIN",
		"name": "Innarsuit Heliport",
		"latitude_deg": 73.199895,
		"longitude_deg": -56.010817,
		"elevation_ft": 95,
		"continent": "NA",
		"iso_country": "GL",
		"iso_region": "GL-U-A",
		"municipality": "Innarsuit",
		"gps_code": "BGIN",
		"iata_code": "IUI"
	},
	{
		"ident": "BGIS",
		"name": "Isortoq Heliport",
		"latitude_deg": 65.547792,
		"longitude_deg": -38.976552,
		"elevation_ft": 92,
		"continent": "NA",
		"iso_country": "GL",
		"iso_region": "GL-U-A",
		"municipality": "Isortoq",
		"gps_code": "BGIS",
		"iata_code": "IOQ"
	},
	{
		"ident": "BGIT",
		"name": "Ikamiut Heliport",
		"latitude_deg": 68.6342530984,
		"longitude_deg": -51.8322622776,
		"elevation_ft": 49,
		"continent": "NA",
		"iso_country": "GL",
		"iso_region": "GL-U-A",
		"municipality": "Ikamiut",
		"gps_code": "BGIT",
		"iata_code": "QJI"
	},
	{
		"ident": "BGJH",
		"name": "Qaqortoq Heliport",
		"latitude_deg": 60.715684155299996,
		"longitude_deg": -46.0299186409,
		"elevation_ft": 53,
		"continent": "NA",
		"iso_country": "GL",
		"iso_region": "GL-U-A",
		"municipality": "Qaqortoq",
		"gps_code": "BGJH",
		"iata_code": "JJU"
	},
	{
		"ident": "BGJN",
		"name": "Ilulissat Airport",
		"latitude_deg": 69.2432022095,
		"longitude_deg": -51.0570983887,
		"elevation_ft": 95,
		"continent": "NA",
		"iso_country": "GL",
		"iso_region": "GL-U-A",
		"municipality": "Ilulissat",
		"gps_code": "BGJN",
		"iata_code": "JAV"
	},
	{
		"ident": "BGKA",
		"name": "Kangaatsiaq Heliport",
		"latitude_deg": 68.3126574861,
		"longitude_deg": -53.4602075815,
		"elevation_ft": 17,
		"continent": "NA",
		"iso_country": "GL",
		"iso_region": "GL-U-A",
		"municipality": "Kangaatsiaq",
		"gps_code": "BGKA",
		"iata_code": "QPW"
	},
	{
		"ident": "BGKK",
		"name": "Kulusuk Airport",
		"latitude_deg": 65.573600769,
		"longitude_deg": -37.1236000061,
		"elevation_ft": 117,
		"continent": "NA",
		"iso_country": "GL",
		"iso_region": "GL-U-A",
		"municipality": "Kulusuk",
		"gps_code": "BGKK",
		"iata_code": "KUS"
	},
	{
		"ident": "BGKM",
		"name": "Kuummiut Heliport",
		"latitude_deg": 65.863935,
		"longitude_deg": -36.997919,
		"elevation_ft": 89,
		"continent": "NA",
		"iso_country": "GL",
		"iso_region": "GL-U-A",
		"municipality": "Kuummiut",
		"gps_code": "BGKM",
		"iata_code": "KUZ"
	},
	{
		"ident": "BGKQ",
		"name": "Kullorsuaq Heliport",
		"latitude_deg": 74.57805,
		"longitude_deg": -57.226828,
		"elevation_ft": 148,
		"continent": "NA",
		"iso_country": "GL",
		"iso_region": "GL-U-A",
		"municipality": "Kullorsuaq",
		"gps_code": "BGKQ",
		"iata_code": "KHQ"
	},
	{
		"ident": "BGKS",
		"name": "Kangersuatsiaq Heliport",
		"latitude_deg": 72.381092,
		"longitude_deg": -55.536586,
		"elevation_ft": 112,
		"continent": "NA",
		"iso_country": "GL",
		"iso_region": "GL-U-A",
		"municipality": "Kangersuatsiaq",
		"gps_code": "BGKS",
		"iata_code": "KGQ"
	},
	{
		"ident": "BGKT",
		"name": "Kitsissuarsuit Heliport",
		"latitude_deg": 68.85792599759999,
		"longitude_deg": -53.123295307199996,
		"elevation_ft": 18,
		"continent": "NA",
		"iso_country": "GL",
		"iso_region": "GL-U-A",
		"municipality": "Kitsissuarsuit",
		"gps_code": "BGKT",
		"iata_code": "QJE"
	},
	{
		"ident": "BGMQ",
		"name": "Maniitsoq Airport",
		"latitude_deg": 65.4124984741,
		"longitude_deg": -52.9393997192,
		"elevation_ft": 91,
		"continent": "NA",
		"iso_country": "GL",
		"iso_region": "GL-U-A",
		"municipality": "Maniitsoq",
		"gps_code": "BGMQ",
		"iata_code": "JSU"
	},
	{
		"ident": "BGNS",
		"name": "Narsaq Heliport",
		"latitude_deg": 60.9172827256,
		"longitude_deg": -46.059923172,
		"elevation_ft": 83,
		"continent": "NA",
		"iso_country": "GL",
		"iso_region": "GL-U-A",
		"municipality": "Narsaq",
		"gps_code": "BGNS",
		"iata_code": "JNS"
	},
	{
		"ident": "BGNT",
		"name": "Niaqornat Heliport",
		"latitude_deg": 70.789385,
		"longitude_deg": -53.662945,
		"elevation_ft": 10,
		"continent": "NA",
		"iso_country": "GL",
		"iso_region": "GL-U-A",
		"municipality": "Niaqornat",
		"gps_code": "BGNT",
		"iata_code": "NIQ"
	},
	{
		"ident": "BGNU",
		"name": "Nuussuaq Heliport",
		"latitude_deg": 74.109853,
		"longitude_deg": -57.065037,
		"elevation_ft": 184,
		"continent": "NA",
		"iso_country": "GL",
		"iso_region": "GL-U-A",
		"municipality": "Nuussuaq",
		"gps_code": "BGNU",
		"iata_code": "NSQ"
	},
	{
		"ident": "BGPT",
		"name": "Paamiut Airport",
		"latitude_deg": 62.0147361755,
		"longitude_deg": -49.6709365845,
		"elevation_ft": 120,
		"continent": "NA",
		"iso_country": "GL",
		"iso_region": "GL-U-A",
		"municipality": "Paamiut",
		"gps_code": "BGPT",
		"iata_code": "JFR"
	},
	{
		"ident": "BGQE",
		"name": "Qeqertaq Heliport",
		"latitude_deg": 69.9958611087,
		"longitude_deg": -51.3009166718,
		"elevation_ft": 69,
		"continent": "NA",
		"iso_country": "GL",
		"iso_region": "GL-U-A",
		"municipality": "Qeqertaq",
		"gps_code": "BGQE",
		"iata_code": "QQT"
	},
	{
		"ident": "BGQQ",
		"name": "Qaanaaq Airport",
		"latitude_deg": 77.4886016846,
		"longitude_deg": -69.3887023926,
		"elevation_ft": 51,
		"continent": "NA",
		"iso_country": "GL",
		"iso_region": "GL-U-A",
		"municipality": "Qaanaaq",
		"gps_code": "BGQQ",
		"iata_code": "NAQ"
	},
	{
		"ident": "BGSC",
		"name": "Ittoqqortoormiit Heliport",
		"latitude_deg": 70.4882288244,
		"longitude_deg": -21.971679925900002,
		"elevation_ft": 238,
		"continent": "NA",
		"iso_country": "GL",
		"iso_region": "GL-U-A",
		"municipality": "Ittoqqortoormiit",
		"gps_code": "BGSC",
		"iata_code": "OBY"
	},
	{
		"ident": "BGSF",
		"name": "Kangerlussuaq Airport",
		"latitude_deg": 67.0122218992,
		"longitude_deg": -50.7116031647,
		"elevation_ft": 165,
		"continent": "NA",
		"iso_country": "GL",
		"iso_region": "GL-U-A",
		"municipality": "Kangerlussuaq",
		"gps_code": "BGSF",
		"iata_code": "SFJ"
	},
	{
		"ident": "BGSI",
		"name": "Siorapaluk Heliport",
		"latitude_deg": 77.786517,
		"longitude_deg": -70.638657,
		"elevation_ft": 102,
		"continent": "NA",
		"iso_country": "GL",
		"iso_region": "GL-U-A",
		"municipality": "Siorapaluk",
		"gps_code": "BGSI",
		"iata_code": "SRK"
	},
	{
		"ident": "BGSS",
		"name": "Sisimiut Airport",
		"latitude_deg": 66.951302,
		"longitude_deg": -53.729301,
		"elevation_ft": 33,
		"continent": "NA",
		"iso_country": "GL",
		"iso_region": "GL-U-A",
		"municipality": "Sisimiut",
		"gps_code": "BGSS",
		"iata_code": "JHS"
	},
	{
		"ident": "BGSV",
		"name": "Savissivik Heliport",
		"latitude_deg": 76.018613,
		"longitude_deg": -65.117683,
		"elevation_ft": 24,
		"continent": "NA",
		"iso_country": "GL",
		"iso_region": "GL-U-A",
		"municipality": "Savissivik",
		"gps_code": "BGSV",
		"iata_code": "SVR"
	},
	{
		"ident": "BGTL",
		"name": "Thule Air Base",
		"latitude_deg": 76.5311965942,
		"longitude_deg": -68.7032012939,
		"elevation_ft": 251,
		"continent": "NA",
		"iso_country": "GL",
		"iso_region": "GL-U-A",
		"municipality": "Thule",
		"gps_code": "BGTL",
		"iata_code": "THU"
	},
	{
		"ident": "BGTN",
		"name": "Tiniteqilaaq Heliport",
		"latitude_deg": 65.892027,
		"longitude_deg": -37.783409,
		"elevation_ft": 15,
		"continent": "NA",
		"iso_country": "GL",
		"iso_region": "GL-U-A",
		"municipality": "Tiniteqilaaq",
		"gps_code": "BGTN",
		"iata_code": "TQI"
	},
	{
		"ident": "BGUK",
		"name": "Upernavik Airport",
		"latitude_deg": 72.7901992798,
		"longitude_deg": -56.1305999756,
		"elevation_ft": 414,
		"continent": "NA",
		"iso_country": "GL",
		"iso_region": "GL-U-A",
		"municipality": "Upernavik",
		"gps_code": "BGUK",
		"iata_code": "JUV"
	},
	{
		"ident": "BGUM",
		"name": "Uummannaq Heliport",
		"latitude_deg": 70.6804279261,
		"longitude_deg": -52.111630439799995,
		"elevation_ft": 50,
		"continent": "NA",
		"iso_country": "GL",
		"iso_region": "GL-U-A",
		"municipality": "Uummannaq",
		"gps_code": "BGUM",
		"iata_code": "UMD"
	},
	{
		"ident": "BGUQ",
		"name": "Qaarsut Airport",
		"latitude_deg": 70.7341995239,
		"longitude_deg": -52.6962013245,
		"elevation_ft": 289,
		"continent": "NA",
		"iso_country": "GL",
		"iso_region": "GL-U-A",
		"municipality": "Uummannaq",
		"gps_code": "BGUQ",
		"iata_code": "JQA"
	},
	{
		"ident": "BGUT",
		"name": "Ukkusissat Heliport",
		"latitude_deg": 71.049438,
		"longitude_deg": -51.890016,
		"elevation_ft": 223,
		"continent": "NA",
		"iso_country": "GL",
		"iso_region": "GL-U-A",
		"municipality": "Ukkusissat",
		"gps_code": "BGUT",
		"iata_code": "JUK"
	},
	{
		"ident": "BIAR",
		"name": "Akureyri Airport",
		"latitude_deg": 65.66000366210938,
		"longitude_deg": -18.07270050048828,
		"elevation_ft": 6,
		"continent": "EU",
		"iso_country": "IS",
		"iso_region": "IS-6",
		"municipality": "Akureyri",
		"gps_code": "BIAR",
		"iata_code": "AEY"
	},
	{
		"ident": "BIEG",
		"name": "Egilsstaðir Airport",
		"latitude_deg": 65.2833023071289,
		"longitude_deg": -14.401399612426758,
		"elevation_ft": 76,
		"continent": "EU",
		"iso_country": "IS",
		"iso_region": "IS-7",
		"municipality": "Egilsstaðir",
		"gps_code": "BIEG",
		"iata_code": "EGS"
	},
	{
		"ident": "BIGR",
		"name": "Grímsey Airport",
		"latitude_deg": 66.5458,
		"longitude_deg": -18.0173,
		"elevation_ft": 66,
		"continent": "EU",
		"iso_country": "IS",
		"iso_region": "IS-6",
		"municipality": "Grímsey",
		"gps_code": "BIGR",
		"iata_code": "GRY"
	},
	{
		"ident": "BIHN",
		"name": "Hornafjörður Airport",
		"latitude_deg": 64.295601,
		"longitude_deg": -15.2272,
		"elevation_ft": 24,
		"continent": "EU",
		"iso_country": "IS",
		"iso_region": "IS-8",
		"municipality": "Höfn",
		"gps_code": "BIHN",
		"iata_code": "HFN"
	},
	{
		"ident": "BIHU",
		"name": "Húsavík Airport",
		"latitude_deg": 65.952301,
		"longitude_deg": -17.426001,
		"elevation_ft": 48,
		"continent": "EU",
		"iso_country": "IS",
		"iso_region": "IS-6",
		"municipality": "Húsavík",
		"gps_code": "BIHU",
		"iata_code": "HZK"
	},
	{
		"ident": "BIIS",
		"name": "Ísafjörður Airport",
		"latitude_deg": 66.05809783935547,
		"longitude_deg": -23.135299682617188,
		"elevation_ft": 8,
		"continent": "EU",
		"iso_country": "IS",
		"iso_region": "IS-4",
		"municipality": "Ísafjörður",
		"gps_code": "BIIS",
		"iata_code": "IFJ"
	},
	{
		"ident": "BIKF",
		"name": "Keflavik International Airport",
		"latitude_deg": 63.985001,
		"longitude_deg": -22.6056,
		"elevation_ft": 171,
		"continent": "EU",
		"iso_country": "IS",
		"iso_region": "IS-2",
		"municipality": "Reykjavík",
		"gps_code": "BIKF",
		"iata_code": "KEF"
	},
	{
		"ident": "BIRK",
		"name": "Reykjavik Airport",
		"latitude_deg": 64.1299972534,
		"longitude_deg": -21.9405994415,
		"elevation_ft": 48,
		"continent": "EU",
		"iso_country": "IS",
		"iso_region": "IS-1",
		"municipality": "Reykjavik",
		"gps_code": "BIRK",
		"iata_code": "RKV"
	},
	{
		"ident": "BITN",
		"name": "Thorshofn Airport",
		"latitude_deg": 66.21849822998047,
		"longitude_deg": -15.335599899291992,
		"elevation_ft": 65,
		"continent": "EU",
		"iso_country": "IS",
		"iso_region": "IS-6",
		"municipality": "Thorshofn",
		"gps_code": "BITN",
		"iata_code": "THO"
	},
	{
		"ident": "BIVO",
		"name": "Vopnafjörður Airport",
		"latitude_deg": 65.72059631347656,
		"longitude_deg": -14.850600242614746,
		"elevation_ft": 16,
		"continent": "EU",
		"iso_country": "IS",
		"iso_region": "IS-7",
		"municipality": "Vopnafjörður",
		"gps_code": "BIVO",
		"iata_code": "VPN"
	},
	{
		"ident": "BJT",
		"name": "Bentota River Waterdrome",
		"latitude_deg": 6.431,
		"longitude_deg": 79.996,
		"elevation_ft": "",
		"continent": "AS",
		"iso_country": "LK",
		"iso_region": "LK-1",
		"municipality": "Bentota",
		"gps_code": "",
		"iata_code": "BJT"
	},
	{
		"ident": "BKPR",
		"name": "Priština Adem Jashari International Airport",
		"latitude_deg": 42.5728,
		"longitude_deg": 21.035801,
		"elevation_ft": 1789,
		"continent": "EU",
		"iso_country": "XK",
		"iso_region": "XK-01",
		"municipality": "Prishtina",
		"gps_code": "BKPR",
		"iata_code": "PRN"
	},
	{
		"ident": "BMQ",
		"name": "Bamburi Airport",
		"latitude_deg": -3.98191,
		"longitude_deg": 39.730768,
		"elevation_ft": 52,
		"continent": "AF",
		"iso_country": "KE",
		"iso_region": "KE-300",
		"municipality": "",
		"gps_code": "HKBM",
		"iata_code": "BMQ"
	},
	{
		"ident": "BOT",
		"name": "Bosset Airport",
		"latitude_deg": -7.237257,
		"longitude_deg": 141.1063222,
		"elevation_ft": 80,
		"continent": "OC",
		"iso_country": "PG",
		"iso_region": "PG-WPD",
		"municipality": "Bosset",
		"gps_code": "AYET",
		"iata_code": "BOT"
	},
	{
		"ident": "BR-0569",
		"name": "Glauber de Andrade Rocha Airport",
		"latitude_deg": -14.907885,
		"longitude_deg": -40.914804,
		"elevation_ft": 2940,
		"continent": "SA",
		"iso_country": "BR",
		"iso_region": "BR-BA",
		"municipality": "Vitória da Conquista",
		"gps_code": "SBVC",
		"iata_code": "VDC"
	},
	{
		"ident": "BS-NSB",
		"name": "Bimini North Seaplane Base",
		"latitude_deg": 25.767000198364258,
		"longitude_deg": -79.25,
		"elevation_ft": "",
		"continent": "NA",
		"iso_country": "BS",
		"iso_region": "BS-BI",
		"municipality": "Bimini",
		"gps_code": "",
		"iata_code": "NSB"
	},
	{
		"ident": "BZ-BCV",
		"name": "Hector Silva Airstrip",
		"latitude_deg": 17.269603,
		"longitude_deg": -88.776496,
		"elevation_ft": 150,
		"continent": "NA",
		"iso_country": "BZ",
		"iso_region": "BZ-CY",
		"municipality": "Belmopan",
		"gps_code": "",
		"iata_code": "BCV"
	},
	{
		"ident": "BZ-BGK",
		"name": "Big Creek Airport",
		"latitude_deg": 16.519369,
		"longitude_deg": -88.407913,
		"elevation_ft": 22,
		"continent": "NA",
		"iso_country": "BZ",
		"iso_region": "BZ-SC",
		"municipality": "Big Creek",
		"gps_code": "MZBG",
		"iata_code": "BGK"
	},
	{
		"ident": "BZ-CUK",
		"name": "Caye Caulker Airport",
		"latitude_deg": 17.734699,
		"longitude_deg": -88.032501,
		"elevation_ft": 2,
		"continent": "NA",
		"iso_country": "BZ",
		"iso_region": "BZ-BZ",
		"municipality": "Caye Caulker",
		"gps_code": "MZCK",
		"iata_code": "CUK"
	},
	{
		"ident": "BZ-CYC",
		"name": "Caye Chapel Airport",
		"latitude_deg": 17.683792,
		"longitude_deg": -88.044985,
		"elevation_ft": 3,
		"continent": "NA",
		"iso_country": "BZ",
		"iso_region": "BZ-BZ",
		"municipality": "Caye Chapel",
		"gps_code": "MZCP",
		"iata_code": "CYC"
	},
	{
		"ident": "BZ-CZH",
		"name": "Corozal Municipal Airport",
		"latitude_deg": 18.382200241088867,
		"longitude_deg": -88.41190338134766,
		"elevation_ft": 40,
		"continent": "NA",
		"iso_country": "BZ",
		"iso_region": "BZ-CZL",
		"municipality": "Corozal",
		"gps_code": "",
		"iata_code": "CZH"
	},
	{
		"ident": "BZ-DGA",
		"name": "Dangriga Airport",
		"latitude_deg": 16.98250961303711,
		"longitude_deg": -88.23098754882812,
		"elevation_ft": 508,
		"continent": "NA",
		"iso_country": "BZ",
		"iso_region": "BZ-SC",
		"municipality": "Dangriga",
		"gps_code": "",
		"iata_code": "DGA"
	},
	{
		"ident": "BZ-PLJ",
		"name": "Placencia Airport",
		"latitude_deg": 16.536956787109375,
		"longitude_deg": -88.36151123046875,
		"elevation_ft": 3,
		"continent": "NA",
		"iso_country": "BZ",
		"iso_region": "BZ-SC",
		"municipality": "Placencia",
		"gps_code": "",
		"iata_code": "PLJ"
	},
	{
		"ident": "BZ-PND",
		"name": "Punta Gorda Airport",
		"latitude_deg": 16.102399826,
		"longitude_deg": -88.80829620360001,
		"elevation_ft": 7,
		"continent": "NA",
		"iso_country": "BZ",
		"iso_region": "BZ-TOL",
		"municipality": "Punta Gorda",
		"gps_code": "",
		"iata_code": "PND"
	},
	{
		"ident": "BZ-SJX",
		"name": "Sartaneja Airport",
		"latitude_deg": 18.35610008239746,
		"longitude_deg": -88.13079833984375,
		"elevation_ft": 3,
		"continent": "NA",
		"iso_country": "BZ",
		"iso_region": "BZ-CZL",
		"municipality": "Sartaneja",
		"gps_code": "",
		"iata_code": "SJX"
	},
	{
		"ident": "BZ-SPR",
		"name": "John Greif II Airport",
		"latitude_deg": 17.9139,
		"longitude_deg": -87.9711,
		"elevation_ft": 4,
		"continent": "NA",
		"iso_country": "BZ",
		"iso_region": "BZ-CY",
		"municipality": "San Pedro",
		"gps_code": "MZSP",
		"iata_code": "SPR"
	},
	{
		"ident": "BZ-TZA",
		"name": "Sir Barry Bowen Municipal Airport",
		"latitude_deg": 17.51639,
		"longitude_deg": -88.194443,
		"elevation_ft": 8,
		"continent": "NA",
		"iso_country": "BZ",
		"iso_region": "BZ-BZ",
		"municipality": "Belize City",
		"gps_code": "MZBE",
		"iata_code": "TZA"
	},
	{
		"ident": "CAB3",
		"name": "Bedwell Harbour Seaplane Base",
		"latitude_deg": 48.75,
		"longitude_deg": -123.233001709,
		"elevation_ft": 0,
		"continent": "NA",
		"iso_country": "CA",
		"iso_region": "CA-BC",
		"municipality": "Bedwell Harbour",
		"gps_code": "CAB3",
		"iata_code": "YBW"
	},
	{
		"ident": "CAC8",
		"name": "Nanaimo Harbour Water Airport",
		"latitude_deg": 49.1833000183,
		"longitude_deg": -123.949996948,
		"elevation_ft": 0,
		"continent": "NA",
		"iso_country": "CA",
		"iso_region": "CA-BC",
		"municipality": "Nanaimo",
		"gps_code": "CAC8",
		"iata_code": "ZNA"
	},
	{
		"ident": "CAE5",
		"name": "Whistler/Green Lake Water Aerodrome",
		"latitude_deg": 50.1436004639,
		"longitude_deg": -122.948997498,
		"elevation_ft": 2100,
		"continent": "NA",
		"iso_country": "CA",
		"iso_region": "CA-BC",
		"municipality": "Whistler",
		"gps_code": "CAE5",
		"iata_code": "YWS"
	},
	{
		"ident": "CAJ4",
		"name": "Anahim Lake Airport",
		"latitude_deg": 52.451501,
		"longitude_deg": -125.303776,
		"elevation_ft": 3635,
		"continent": "NA",
		"iso_country": "CA",
		"iso_region": "CA-BC",
		"municipality": "Anahim Lake",
		"gps_code": "CAJ4",
		"iata_code": "YAA"
	},
	{
		"ident": "CAX6",
		"name": "Ganges Seaplane Base",
		"latitude_deg": 48.8545,
		"longitude_deg": -123.4969,
		"elevation_ft": 0,
		"continent": "NA",
		"iso_country": "CA",
		"iso_region": "CA-BC",
		"municipality": "Salt Spring Island",
		"gps_code": "CAX6",
		"iata_code": "YGG"
	},
	{
		"ident": "CBBC",
		"name": "Bella Bella (Campbell Island) Airport",
		"latitude_deg": 52.185001,
		"longitude_deg": -128.156994,
		"elevation_ft": 141,
		"continent": "NA",
		"iso_country": "CA",
		"iso_region": "CA-BC",
		"municipality": "Bella Bella",
		"gps_code": "CBBC",
		"iata_code": "ZEL"
	},
	{
		"ident": "CCA6",
		"name": "Williams Harbour Airport",
		"latitude_deg": 52.566898345947266,
		"longitude_deg": -55.784698486328125,
		"elevation_ft": 70,
		"continent": "NA",
		"iso_country": "CA",
		"iso_region": "CA-NL",
		"municipality": "Williams Harbour",
		"gps_code": "CCA6",
		"iata_code": "YWM"
	},
	{
		"ident": "CCD4",
		"name": "Postville Airport",
		"latitude_deg": 54.9105,
		"longitude_deg": -59.78507,
		"elevation_ft": 193,
		"continent": "NA",
		"iso_country": "CA",
		"iso_region": "CA-NL",
		"municipality": "Postville",
		"gps_code": "CCD4",
		"iata_code": "YSO"
	},
	{
		"ident": "CCK4",
		"name": "St. Lewis (Fox Harbour) Airport",
		"latitude_deg": 52.372798919677734,
		"longitude_deg": -55.67390060424805,
		"elevation_ft": 74,
		"continent": "NA",
		"iso_country": "CA",
		"iso_region": "CA-NL",
		"municipality": "St. Lewis",
		"gps_code": "CCK4",
		"iata_code": "YFX"
	},
	{
		"ident": "CCP4",
		"name": "Port Hope Simpson Airport",
		"latitude_deg": 52.528099060058594,
		"longitude_deg": -56.28609848022461,
		"elevation_ft": 347,
		"continent": "NA",
		"iso_country": "CA",
		"iso_region": "CA-NL",
		"municipality": "Port Hope Simpson",
		"gps_code": "CCP4",
		"iata_code": "YHA"
	},
	{
		"ident": "CCZ2",
		"name": "Rigolet Airport",
		"latitude_deg": 54.1796989440918,
		"longitude_deg": -58.45750045776367,
		"elevation_ft": 180,
		"continent": "NA",
		"iso_country": "CA",
		"iso_region": "CA-NL",
		"municipality": "Rigolet",
		"gps_code": "CCZ2",
		"iata_code": "YRG"
	},
	{
		"ident": "CEM3",
		"name": "Whatì Airport",
		"latitude_deg": 63.13169860839844,
		"longitude_deg": -117.24600219726562,
		"elevation_ft": 882,
		"continent": "NA",
		"iso_country": "CA",
		"iso_region": "CA-NT",
		"municipality": "Whatì",
		"gps_code": "CEM3",
		"iata_code": "YLE"
	},
	{
		"ident": "CFJ2",
		"name": "Wekweètì Airport",
		"latitude_deg": 64.190804,
		"longitude_deg": -114.077002,
		"elevation_ft": 1208,
		"continent": "NA",
		"iso_country": "CA",
		"iso_region": "CA-NT",
		"municipality": "Wekweètì",
		"gps_code": "CYWE",
		"iata_code": "YFJ"
	},
	{
		"ident": "CJV7",
		"name": "Summer Beaver Airport",
		"latitude_deg": 52.70859909057617,
		"longitude_deg": -88.54190063476562,
		"elevation_ft": 832,
		"continent": "NA",
		"iso_country": "CA",
		"iso_region": "CA-ON",
		"municipality": "Summer Beaver",
		"gps_code": "CJV7",
		"iata_code": "SUR"
	},
	{
		"ident": "CKB6",
		"name": "Wapekeka Airport",
		"latitude_deg": 53.84920120239258,
		"longitude_deg": -89.57939910888672,
		"elevation_ft": 712,
		"continent": "NA",
		"iso_country": "CA",
		"iso_region": "CA-ON",
		"municipality": "Angling Lake",
		"gps_code": "CKB6",
		"iata_code": "YAX"
	},
	{
		"ident": "CKL3",
		"name": "Wunnumin Lake Airport",
		"latitude_deg": 52.89390182495117,
		"longitude_deg": -89.28919982910156,
		"elevation_ft": 819,
		"continent": "NA",
		"iso_country": "CA",
		"iso_region": "CA-ON",
		"municipality": "Wunnumin Lake",
		"gps_code": "CKL3",
		"iata_code": "WNN"
	},
	{
		"ident": "CKQ3",
		"name": "North Spirit Lake Airport",
		"latitude_deg": 52.4900016784668,
		"longitude_deg": -92.97109985351562,
		"elevation_ft": 1082,
		"continent": "NA",
		"iso_country": "CA",
		"iso_region": "CA-ON",
		"municipality": "North Spirit Lake",
		"gps_code": "CKQ3",
		"iata_code": "YNO"
	},
	{
		"ident": "CN-0005",
		"name": "Tangshan Sannühe Airport",
		"latitude_deg": 39.7178001404,
		"longitude_deg": 118.002624512,
		"elevation_ft": 50,
		"continent": "AS",
		"iso_country": "CN",
		"iso_region": "CN-13",
		"municipality": "Tangshan",
		"gps_code": "ZBTS",
		"iata_code": "TVS"
	},
	{
		"ident": "CN-0024",
		"name": "Zhangjiakou Ningyuan Airport",
		"latitude_deg": 40.7386016846,
		"longitude_deg": 114.930000305,
		"elevation_ft": 2347,
		"continent": "AS",
		"iso_country": "CN",
		"iso_region": "CN-13",
		"municipality": "Zhangjiakou",
		"gps_code": "ZBZJ",
		"iata_code": "ZQZ"
	},
	{
		"ident": "CN-0027",
		"name": "Baoshan Yunduan Airport",
		"latitude_deg": 25.053301,
		"longitude_deg": 99.168297,
		"elevation_ft": 5453,
		"continent": "AS",
		"iso_country": "CN",
		"iso_region": "CN-53",
		"municipality": "",
		"gps_code": "ZPBS",
		"iata_code": "BSD"
	},
	{
		"ident": "CN-0040",
		"name": "Lintsang Airfield",
		"latitude_deg": 23.738100051900002,
		"longitude_deg": 100.025001526,
		"elevation_ft": 6230,
		"continent": "AS",
		"iso_country": "CN",
		"iso_region": "CN-53",
		"municipality": "Lincang",
		"gps_code": "ZPLC",
		"iata_code": "LNJ"
	},
	{
		"ident": "CN-0046",
		"name": "Shigatse Air Base",
		"latitude_deg": 29.3519,
		"longitude_deg": 89.311401,
		"elevation_ft": 3782,
		"continent": "AS",
		"iso_country": "CN",
		"iso_region": "CN-54",
		"municipality": "Xigazê",
		"gps_code": "ZURK",
		"iata_code": "RKZ"
	},
	{
		"ident": "CN-0050",
		"name": "Bao'anying Airport",
		"latitude_deg": 26.54,
		"longitude_deg": 101.79852,
		"elevation_ft": 1620,
		"continent": "AS",
		"iso_country": "CN",
		"iso_region": "CN-51",
		"municipality": "Panzhihua",
		"gps_code": "ZUZH",
		"iata_code": "PZI"
	},
	{
		"ident": "CN-0061",
		"name": "Foshan Shadi Airport",
		"latitude_deg": 23.0833,
		"longitude_deg": 113.07,
		"elevation_ft": 6,
		"continent": "AS",
		"iso_country": "CN",
		"iso_region": "CN-44",
		"municipality": "Nanhai, Foshan",
		"gps_code": "ZGFS",
		"iata_code": "FUO"
	},
	{
		"ident": "CN-0062",
		"name": "Bazhong Enyang Airport",
		"latitude_deg": 31.73842,
		"longitude_deg": 106.644872,
		"elevation_ft": 1804,
		"continent": "AS",
		"iso_country": "CN",
		"iso_region": "CN-51",
		"municipality": "Bazhong",
		"gps_code": "ZUBZ",
		"iata_code": "BZX"
	},
	{
		"ident": "CN-0067",
		"name": "Xinyang Minggang Airport",
		"latitude_deg": 32.540819,
		"longitude_deg": 114.079141,
		"elevation_ft": 312,
		"continent": "AS",
		"iso_country": "CN",
		"iso_region": "CN-41",
		"municipality": "Xinyang",
		"gps_code": "ZHXY",
		"iata_code": "XAI"
	},
	{
		"ident": "CN-0068",
		"name": "Huizhou Pingtan Airport",
		"latitude_deg": 23.049999,
		"longitude_deg": 114.599998,
		"elevation_ft": 50,
		"continent": "AS",
		"iso_country": "CN",
		"iso_region": "CN-44",
		"municipality": "Pingtan, Huizhou",
		"gps_code": "ZGHZ",
		"iata_code": "HUZ"
	},
	{
		"ident": "CN-0081",
		"name": "Jinggangshan Airport",
		"latitude_deg": 26.856899261499997,
		"longitude_deg": 114.736999512,
		"elevation_ft": 281,
		"continent": "AS",
		"iso_country": "CN",
		"iso_region": "CN-36",
		"municipality": "Ji'an",
		"gps_code": "ZSJA",
		"iata_code": "JGS"
	},
	{
		"ident": "CN-0082",
		"name": "Baise Youjiang Airport",
		"latitude_deg": 23.7206,
		"longitude_deg": 106.959999,
		"elevation_ft": 490,
		"continent": "AS",
		"iso_country": "CN",
		"iso_region": "CN-45",
		"municipality": "Baise (Tianyang)",
		"gps_code": "ZGBS",
		"iata_code": "AEB"
	},
	{
		"ident": "CN-0113",
		"name": "Altay Airport",
		"latitude_deg": 47.749886,
		"longitude_deg": 88.085808,
		"elevation_ft": 2460,
		"continent": "AS",
		"iso_country": "CN",
		"iso_region": "CN-65",
		"municipality": "Altay",
		"gps_code": "ZWAT",
		"iata_code": "AAT"
	},
	{
		"ident": "CN-0130",
		"name": "Tianshui Maijishan Airport",
		"latitude_deg": 34.559399,
		"longitude_deg": 105.860001,
		"elevation_ft": 3590,
		"continent": "AS",
		"iso_country": "CN",
		"iso_region": "CN-62",
		"municipality": "Tianshui",
		"gps_code": "ZLTS",
		"iata_code": "THQ"
	},
	{
		"ident": "CN-0143",
		"name": "Zhangye Ganzhou Airport",
		"latitude_deg": 38.8018989563,
		"longitude_deg": 100.675003052,
		"elevation_ft": 5280,
		"continent": "AS",
		"iso_country": "CN",
		"iso_region": "CN-62",
		"municipality": "Zhangye",
		"gps_code": "ZLZY",
		"iata_code": "YZY"
	},
	{
		"ident": "CN-0189",
		"name": "Dandong Langtou Airport",
		"latitude_deg": 40.0247,
		"longitude_deg": 124.286003,
		"elevation_ft": 30,
		"continent": "AS",
		"iso_country": "CN",
		"iso_region": "CN-21",
		"municipality": "Zhenxing, Dandong",
		"gps_code": "ZYDD",
		"iata_code": "DDG"
	},
	{
		"ident": "CN-NTG",
		"name": "Nantong Airport",
		"latitude_deg": 32.0708007812,
		"longitude_deg": 120.975997925,
		"elevation_ft": 16,
		"continent": "AS",
		"iso_country": "CN",
		"iso_region": "CN-32",
		"municipality": "Nantong",
		"gps_code": "ZSNT",
		"iata_code": "NTG"
	},
	{
		"ident": "CNE3",
		"name": "Bearskin Lake Airport",
		"latitude_deg": 53.965599060058594,
		"longitude_deg": -91.0271987915039,
		"elevation_ft": 800,
		"continent": "NA",
		"iso_country": "CA",
		"iso_region": "CA-ON",
		"municipality": "Bearskin Lake",
		"gps_code": "CNE3",
		"iata_code": "XBE"
	},
	{
		"ident": "2,00 CNH",
		"name": "Natuashish Airport",
		"latitude_deg": 55.913898,
		"longitude_deg": -61.184399,
		"elevation_ft": 30,
		"continent": "NA",
		"iso_country": "CA",
		"iso_region": "CA-NL",
		"municipality": "Natuashish",
		"gps_code": "2,00 CNH",
		"iata_code": "YNP"
	},
	{
		"ident": "CNM5",
		"name": "Kingfisher Lake Airport",
		"latitude_deg": 53.01250076293945,
		"longitude_deg": -89.85530090332031,
		"elevation_ft": 866,
		"continent": "NA",
		"iso_country": "CA",
		"iso_region": "CA-ON",
		"municipality": "Kingfisher Lake",
		"gps_code": "CNM5",
		"iata_code": "KIF"
	},
	{
		"ident": "CNT3",
		"name": "Ogoki Post Airport",
		"latitude_deg": 51.6585998535,
		"longitude_deg": -85.9017028809,
		"elevation_ft": 594,
		"continent": "NA",
		"iso_country": "CA",
		"iso_region": "CA-ON",
		"municipality": "Ogoki Post",
		"gps_code": "CYKP",
		"iata_code": "YOG"
	},
	{
		"ident": "CO-LCR",
		"name": "La Chorrera Airport",
		"latitude_deg": -0.733333,
		"longitude_deg": -73.01667,
		"elevation_ft": 709,
		"continent": "SA",
		"iso_country": "CO",
		"iso_region": "CO-AMA",
		"municipality": "La Chorrera",
		"gps_code": "",
		"iata_code": "LCR"
	},
	{
		"ident": "CO-TCD",
		"name": "Tarapacá Airport",
		"latitude_deg": -2.894722,
		"longitude_deg": -69.747222,
		"elevation_ft": 253,
		"continent": "SA",
		"iso_country": "CO",
		"iso_region": "CO-AMA",
		"municipality": "Tarapacá",
		"gps_code": "SKRA",
		"iata_code": "TCD"
	},
	{
		"ident": "CPV7",
		"name": "Poplar Hill Airport",
		"latitude_deg": 52.1133,
		"longitude_deg": -94.2556,
		"elevation_ft": 1095,
		"continent": "NA",
		"iso_country": "CA",
		"iso_region": "CA-ON",
		"municipality": "Poplar Hill",
		"gps_code": "CYHP",
		"iata_code": "YHP"
	},
	{
		"ident": "CSU2",
		"name": "Chisasibi Airport",
		"latitude_deg": 53.805599212646484,
		"longitude_deg": -78.91690063476562,
		"elevation_ft": 43,
		"continent": "NA",
		"iso_country": "CA",
		"iso_region": "CA-QC",
		"municipality": "Chisasibi",
		"gps_code": "CSU2",
		"iata_code": "YKU"
	},
	{
		"ident": "CTB6",
		"name": "Tête-à-la-Baleine Airport",
		"latitude_deg": 50.674400329589844,
		"longitude_deg": -59.38359832763672,
		"elevation_ft": 107,
		"continent": "NA",
		"iso_country": "CA",
		"iso_region": "CA-QC",
		"municipality": "Tête-à-la-Baleine",
		"gps_code": "CTB6",
		"iata_code": "ZTB"
	},
	{
		"ident": "CTU5",
		"name": "La Tabatière Airport",
		"latitude_deg": 50.8307991027832,
		"longitude_deg": -58.97560119628906,
		"elevation_ft": 102,
		"continent": "NA",
		"iso_country": "CA",
		"iso_region": "CA-QC",
		"municipality": "La Tabatière",
		"gps_code": "CTU5",
		"iata_code": "ZLT"
	},
	{
		"ident": "CY-0002",
		"name": "Lefkoniko Airport",
		"latitude_deg": 35.235947,
		"longitude_deg": 33.724358,
		"elevation_ft": 146,
		"continent": "AS",
		"iso_country": "CY",
		"iso_region": "CY-03",
		"municipality": "Geçitkale",
		"gps_code": "LCGK",
		"iata_code": "GEC"
	},
	{
		"ident": "CYAB",
		"name": "Arctic Bay Airport",
		"latitude_deg": 73.0057668174,
		"longitude_deg": -85.0425052643,
		"elevation_ft": 72,
		"continent": "NA",
		"iso_country": "CA",
		"iso_region": "CA-NU",
		"municipality": "Arctic Bay",
		"gps_code": "CYAB",
		"iata_code": "YAB"
	},
	{
		"ident": "CYAC",
		"name": "Cat Lake Airport",
		"latitude_deg": 51.72719955444336,
		"longitude_deg": -91.82440185546875,
		"elevation_ft": 1344,
		"continent": "NA",
		"iso_country": "CA",
		"iso_region": "CA-ON",
		"municipality": "Cat Lake",
		"gps_code": "CYAC",
		"iata_code": "YAC"
	},
	{
		"ident": "CYAG",
		"name": "Fort Frances Municipal Airport",
		"latitude_deg": 48.65420150756836,
		"longitude_deg": -93.439697265625,
		"elevation_ft": 1125,
		"continent": "NA",
		"iso_country": "CA",
		"iso_region": "CA-ON",
		"municipality": "Fort Frances",
		"gps_code": "CYAG",
		"iata_code": "YAG"
	},
	{
		"ident": "CYAM",
		"name": "Sault Ste Marie Airport",
		"latitude_deg": 46.485001,
		"longitude_deg": -84.509399,
		"elevation_ft": 630,
		"continent": "NA",
		"iso_country": "CA",
		"iso_region": "CA-ON",
		"municipality": "Sault Ste Marie",
		"gps_code": "CYAM",
		"iata_code": "YAM"
	},
	{
		"ident": "CYAQ",
		"name": "Kasabonika Airport",
		"latitude_deg": 53.52470016479492,
		"longitude_deg": -88.6427993774414,
		"elevation_ft": 672,
		"continent": "NA",
		"iso_country": "CA",
		"iso_region": "CA-ON",
		"municipality": "Kasabonika",
		"gps_code": "CYAQ",
		"iata_code": "XKS"
	},
	{
		"ident": "CYAS",
		"name": "Kangirsuk Airport",
		"latitude_deg": 60.027198791503906,
		"longitude_deg": -69.99919891357422,
		"elevation_ft": 403,
		"continent": "NA",
		"iso_country": "CA",
		"iso_region": "CA-QC",
		"municipality": "Kangirsuk",
		"gps_code": "CYAS",
		"iata_code": "YKG"
	},
	{
		"ident": "CYAT",
		"name": "Attawapiskat Airport",
		"latitude_deg": 52.9275016784668,
		"longitude_deg": -82.43190002441406,
		"elevation_ft": 31,
		"continent": "NA",
		"iso_country": "CA",
		"iso_region": "CA-ON",
		"municipality": "Attawapiskat",
		"gps_code": "CYAT",
		"iata_code": "YAT"
	},
	{
		"ident": "CYAY",
		"name": "St. Anthony Airport",
		"latitude_deg": 51.3918991089,
		"longitude_deg": -56.083099365200006,
		"elevation_ft": 108,
		"continent": "NA",
		"iso_country": "CA",
		"iso_region": "CA-NL",
		"municipality": "St. Anthony",
		"gps_code": "CYAY",
		"iata_code": "YAY"
	},
	{
		"ident": "CYAZ",
		"name": "Tofino / Long Beach Airport",
		"latitude_deg": 49.079833,
		"longitude_deg": -125.775583,
		"elevation_ft": 80,
		"continent": "NA",
		"iso_country": "CA",
		"iso_region": "CA-BC",
		"municipality": "Tofino",
		"gps_code": "CYAZ",
		"iata_code": "YAZ"
	},
	{
		"ident": "CYBB",
		"name": "Kugaaruk Airport",
		"latitude_deg": 68.534401,
		"longitude_deg": -89.808098,
		"elevation_ft": 56,
		"continent": "NA",
		"iso_country": "CA",
		"iso_region": "CA-NU",
		"municipality": "Kugaaruk",
		"gps_code": "CYBB",
		"iata_code": "YBB"
	},
	{
		"ident": "CYBC",
		"name": "Baie-Comeau Airport",
		"latitude_deg": 49.1325,
		"longitude_deg": -68.204399,
		"elevation_ft": 71,
		"continent": "NA",
		"iso_country": "CA",
		"iso_region": "CA-QC",
		"municipality": "Baie-Comeau",
		"gps_code": "CYBC",
		"iata_code": "YBC"
	},
	{
		"ident": "CYBD",
		"name": "Bella Coola Airport",
		"latitude_deg": 52.387501,
		"longitude_deg": -126.596001,
		"elevation_ft": 117,
		"continent": "NA",
		"iso_country": "CA",
		"iso_region": "CA-BC",
		"municipality": "Bella Coola",
		"gps_code": "CYBD",
		"iata_code": "QBC"
	},
	{
		"ident": "CYBE",
		"name": "Uranium City Airport",
		"latitude_deg": 59.5614013671875,
		"longitude_deg": -108.48100280761719,
		"elevation_ft": 1044,
		"continent": "NA",
		"iso_country": "CA",
		"iso_region": "CA-SK",
		"municipality": "Uranium City",
		"gps_code": "CYBE",
		"iata_code": "YBE"
	},
	{
		"ident": "CYBF",
		"name": "Bonnyville Airport",
		"latitude_deg": 54.304199,
		"longitude_deg": -110.744003,
		"elevation_ft": 1836,
		"continent": "NA",
		"iso_country": "CA",
		"iso_region": "CA-AB",
		"municipality": "Bonnyville",
		"gps_code": "CYBF",
		"iata_code": "YBY"
	},
	{
		"ident": "CYBG",
		"name": "CFB Bagotville",
		"latitude_deg": 48.33060073852539,
		"longitude_deg": -70.99639892578125,
		"elevation_ft": 522,
		"continent": "NA",
		"iso_country": "CA",
		"iso_region": "CA-QC",
		"municipality": "Bagotville",
		"gps_code": "CYBG",
		"iata_code": "YBG"
	},
	{
		"ident": "CYBK",
		"name": "Baker Lake Airport",
		"latitude_deg": 64.29889678960001,
		"longitude_deg": -96.077796936,
		"elevation_ft": 59,
		"continent": "NA",
		"iso_country": "CA",
		"iso_region": "CA-NU",
		"municipality": "Baker Lake",
		"gps_code": "CYBK",
		"iata_code": "YBK"
	},
	{
		"ident": "CYBL",
		"name": "Campbell River Airport",
		"latitude_deg": 49.950802,
		"longitude_deg": -125.271004,
		"elevation_ft": 346,
		"continent": "NA",
		"iso_country": "CA",
		"iso_region": "CA-BC",
		"municipality": "Campbell River",
		"gps_code": "CYBL",
		"iata_code": "YBL"
	},
	{
		"ident": "CYBQ",
		"name": "Tadoule Lake Airport",
		"latitude_deg": 58.7061,
		"longitude_deg": -98.512199,
		"elevation_ft": 923,
		"continent": "NA",
		"iso_country": "CA",
		"iso_region": "CA-MB",
		"municipality": "Tadoule Lake",
		"gps_code": "CYBQ",
		"iata_code": "XTL"
	},
	{
		"ident": "CYBR",
		"name": "Brandon Municipal Airport",
		"latitude_deg": 49.91,
		"longitude_deg": -99.951897,
		"elevation_ft": 1343,
		"continent": "NA",
		"iso_country": "CA",
		"iso_region": "CA-MB",
		"municipality": "Brandon",
		"gps_code": "CYBR",
		"iata_code": "YBR"
	},
	{
		"ident": "CYBT",
		"name": "Brochet Airport",
		"latitude_deg": 57.8894,
		"longitude_deg": -101.679001,
		"elevation_ft": 1136,
		"continent": "NA",
		"iso_country": "CA",
		"iso_region": "CA-MB",
		"municipality": "Brochet",
		"gps_code": "CYBT",
		"iata_code": "YBT"
	},
	{
		"ident": "CYBV",
		"name": "Berens River Airport",
		"latitude_deg": 52.358898,
		"longitude_deg": -97.018303,
		"elevation_ft": 728,
		"continent": "NA",
		"iso_country": "CA",
		"iso_region": "CA-MB",
		"municipality": "Berens River",
		"gps_code": "CYBV",
		"iata_code": "YBV"
	},
	{
		"ident": "CYBX",
		"name": "Lourdes de Blanc Sablon Airport",
		"latitude_deg": 51.443599700899995,
		"longitude_deg": -57.185298919699996,
		"elevation_ft": 121,
		"continent": "NA",
		"iso_country": "CA",
		"iso_region": "CA-QC",
		"municipality": "Lourdes-De-Blanc-Sablon",
		"gps_code": "CYBX",
		"iata_code": "YBX"
	},
	{
		"ident": "CYCA",
		"name": "Cartwright Airport",
		"latitude_deg": 53.68280029296875,
		"longitude_deg": -57.041900634765625,
		"elevation_ft": 40,
		"continent": "NA",
		"iso_country": "CA",
		"iso_region": "CA-NL",
		"municipality": "Cartwright",
		"gps_code": "CYCA",
		"iata_code": "YRF"
	},
	{
		"ident": "CYCB",
		"name": "Cambridge Bay Airport",
		"latitude_deg": 69.1081008911,
		"longitude_deg": -105.138000488,
		"elevation_ft": 90,
		"continent": "NA",
		"iso_country": "CA",
		"iso_region": "CA-NU",
		"municipality": "Cambridge Bay",
		"gps_code": "CYCB",
		"iata_code": "YCB"
	},
	{
		"ident": "CYCD",
		"name": "Nanaimo Airport",
		"latitude_deg": 49.054970224899996,
		"longitude_deg": -123.869862556,
		"elevation_ft": 92,
		"continent": "NA",
		"iso_country": "CA",
		"iso_region": "CA-BC",
		"municipality": "Nanaimo",
		"gps_code": "CYCD",
		"iata_code": "YCD"
	},
	{
		"ident": "CYCG",
		"name": "Castlegar/West Kootenay Regional Airport",
		"latitude_deg": 49.2963981628,
		"longitude_deg": -117.632003784,
		"elevation_ft": 1624,
		"continent": "NA",
		"iso_country": "CA",
		"iso_region": "CA-BC",
		"municipality": "Castlegar",
		"gps_code": "CYCG",
		"iata_code": "YCG"
	},
	{
		"ident": "CYCH",
		"name": "Miramichi Airport",
		"latitude_deg": 47.007801,
		"longitude_deg": -65.449203,
		"elevation_ft": 108,
		"continent": "NA",
		"iso_country": "CA",
		"iso_region": "CA-NB",
		"municipality": "Miramichi",
		"gps_code": "CYCH",
		"iata_code": "YCH"
	},
	{
		"ident": "CYCL",
		"name": "Charlo Airport",
		"latitude_deg": 47.990799,
		"longitude_deg": -66.330299,
		"elevation_ft": 132,
		"continent": "NA",
		"iso_country": "CA",
		"iso_region": "CA-NB",
		"municipality": "Charlo",
		"gps_code": "CYCL",
		"iata_code": "YCL"
	},
	{
		"ident": "CYCO",
		"name": "Kugluktuk Airport",
		"latitude_deg": 67.816704,
		"longitude_deg": -115.143997,
		"elevation_ft": 74,
		"continent": "NA",
		"iso_country": "CA",
		"iso_region": "CA-NU",
		"municipality": "Kugluktuk",
		"gps_code": "CYCO",
		"iata_code": "YCO"
	},
	{
		"ident": "CYCS",
		"name": "Chesterfield Inlet Airport",
		"latitude_deg": 63.346900939899996,
		"longitude_deg": -90.73110198970001,
		"elevation_ft": 32,
		"continent": "NA",
		"iso_country": "CA",
		"iso_region": "CA-NU",
		"municipality": "Chesterfield Inlet",
		"gps_code": "CYCS",
		"iata_code": "YCS"
	},
	{
		"ident": "CYCY",
		"name": "Clyde River Airport",
		"latitude_deg": 70.4860992432,
		"longitude_deg": -68.5167007446,
		"elevation_ft": 87,
		"continent": "NA",
		"iso_country": "CA",
		"iso_region": "CA-NU",
		"municipality": "Clyde River",
		"gps_code": "CYCY",
		"iata_code": "YCY"
	},
	{
		"ident": "CYDA",
		"name": "Dawson City Airport",
		"latitude_deg": 64.04309844970703,
		"longitude_deg": -139.1280059814453,
		"elevation_ft": 1215,
		"continent": "NA",
		"iso_country": "CA",
		"iso_region": "CA-YT",
		"municipality": "Dawson City",
		"gps_code": "CYDA",
		"iata_code": "YDA"
	},
	{
		"ident": "CYDF",
		"name": "Deer Lake Airport",
		"latitude_deg": 49.21080017089844,
		"longitude_deg": -57.39139938354492,
		"elevation_ft": 72,
		"continent": "NA",
		"iso_country": "CA",
		"iso_region": "CA-NL",
		"municipality": "Deer Lake",
		"gps_code": "CYDF",
		"iata_code": "YDF"
	},
	{
		"ident": "CYDN",
		"name": "Dauphin Barker Airport",
		"latitude_deg": 51.100799560546875,
		"longitude_deg": -100.052001953125,
		"elevation_ft": 999,
		"continent": "NA",
		"iso_country": "CA",
		"iso_region": "CA-MB",
		"municipality": "Dauphin",
		"gps_code": "CYDN",
		"iata_code": "YDN"
	},
	{
		"ident": "CYDP",
		"name": "Nain Airport",
		"latitude_deg": 56.549198150634766,
		"longitude_deg": -61.680301666259766,
		"elevation_ft": 22,
		"continent": "NA",
		"iso_country": "CA",
		"iso_region": "CA-NL",
		"municipality": "Nain",
		"gps_code": "CYDP",
		"iata_code": "YDP"
	},
	{
		"ident": "CYDQ",
		"name": "Dawson Creek Airport",
		"latitude_deg": 55.7422981262207,
		"longitude_deg": -120.18299865722656,
		"elevation_ft": 2148,
		"continent": "NA",
		"iso_country": "CA",
		"iso_region": "CA-BC",
		"municipality": "Dawson Creek",
		"gps_code": "CYDQ",
		"iata_code": "YDQ"
	},
	{
		"ident": "CYEG",
		"name": "Edmonton International Airport",
		"latitude_deg": 53.309700012200004,
		"longitude_deg": -113.580001831,
		"elevation_ft": 2373,
		"continent": "NA",
		"iso_country": "CA",
		"iso_region": "CA-AB",
		"municipality": "Edmonton",
		"gps_code": "CYEG",
		"iata_code": "YEG"
	},
	{
		"ident": "CYEK",
		"name": "Arviat Airport",
		"latitude_deg": 61.0942001343,
		"longitude_deg": -94.07080078119999,
		"elevation_ft": 32,
		"continent": "NA",
		"iso_country": "CA",
		"iso_region": "CA-NU",
		"municipality": "Arviat",
		"gps_code": "CYEK",
		"iata_code": "YEK"
	},
	{
		"ident": "CYER",
		"name": "Fort Severn Airport",
		"latitude_deg": 56.01890182495117,
		"longitude_deg": -87.67610168457031,
		"elevation_ft": 48,
		"continent": "NA",
		"iso_country": "CA",
		"iso_region": "CA-ON",
		"municipality": "Fort Severn",
		"gps_code": "CYER",
		"iata_code": "YER"
	},
	{
		"ident": "CYEV",
		"name": "Inuvik Mike Zubko Airport",
		"latitude_deg": 68.30419921880001,
		"longitude_deg": -133.483001709,
		"elevation_ft": 224,
		"continent": "NA",
		"iso_country": "CA",
		"iso_region": "CA-NT",
		"municipality": "Inuvik",
		"gps_code": "CYEV",
		"iata_code": "YEV"
	},
	{
		"ident": "CYFA",
		"name": "Fort Albany Airport",
		"latitude_deg": 52.20140075683594,
		"longitude_deg": -81.6968994140625,
		"elevation_ft": 48,
		"continent": "NA",
		"iso_country": "CA",
		"iso_region": "CA-ON",
		"municipality": "Fort Albany",
		"gps_code": "CYFA",
		"iata_code": "YFA"
	},
	{
		"ident": "CYFB",
		"name": "Iqaluit Airport",
		"latitude_deg": 63.756402,
		"longitude_deg": -68.555801,
		"elevation_ft": 110,
		"continent": "NA",
		"iso_country": "CA",
		"iso_region": "CA-NU",
		"municipality": "Iqaluit",
		"gps_code": "CYFB",
		"iata_code": "YFB"
	},
	{
		"ident": "CYFC",
		"name": "Fredericton Airport",
		"latitude_deg": 45.868900299072266,
		"longitude_deg": -66.53720092773438,
		"elevation_ft": 68,
		"continent": "NA",
		"iso_country": "CA",
		"iso_region": "CA-NB",
		"municipality": "Fredericton",
		"gps_code": "CYFC",
		"iata_code": "YFC"
	},
	{
		"ident": "CYFH",
		"name": "Fort Hope Airport",
		"latitude_deg": 51.5619010925293,
		"longitude_deg": -87.90779876708984,
		"elevation_ft": 899,
		"continent": "NA",
		"iso_country": "CA",
		"iso_region": "CA-ON",
		"municipality": "Fort Hope",
		"gps_code": "CYFH",
		"iata_code": "YFH"
	},
	{
		"ident": "CYFJ",
		"name": "La Macaza / Mont-Tremblant International Inc Airport",
		"latitude_deg": 46.409401,
		"longitude_deg": -74.779999,
		"elevation_ft": 827,
		"continent": "NA",
		"iso_country": "CA",
		"iso_region": "CA-QC",
		"municipality": "Rivière Rouge",
		"gps_code": "CYFJ",
		"iata_code": "YTM"
	},
	{
		"ident": "CYFO",
		"name": "Flin Flon Airport",
		"latitude_deg": 54.6781005859375,
		"longitude_deg": -101.68199920654297,
		"elevation_ft": 997,
		"continent": "NA",
		"iso_country": "CA",
		"iso_region": "CA-MB",
		"municipality": "Flin Flon",
		"gps_code": "CYFO",
		"iata_code": "YFO"
	},
	{
		"ident": "CYFS",
		"name": "Fort Simpson Airport",
		"latitude_deg": 61.76020050048828,
		"longitude_deg": -121.23699951171875,
		"elevation_ft": 555,
		"continent": "NA",
		"iso_country": "CA",
		"iso_region": "CA-NT",
		"municipality": "Fort Simpson",
		"gps_code": "CYFS",
		"iata_code": "YFS"
	},
	{
		"ident": "CYFT",
		"name": "Makkovik Airport",
		"latitude_deg": 55.076900482177734,
		"longitude_deg": -59.1864013671875,
		"elevation_ft": 234,
		"continent": "NA",
		"iso_country": "CA",
		"iso_region": "CA-NL",
		"municipality": "Makkovik",
		"gps_code": "CYFT",
		"iata_code": "YMN"
	},
	{
		"ident": "CYGB",
		"name": "Texada Gillies Bay Airport",
		"latitude_deg": 49.69419860839844,
		"longitude_deg": -124.51799774169922,
		"elevation_ft": 326,
		"continent": "NA",
		"iso_country": "CA",
		"iso_region": "CA-BC",
		"municipality": "Texada",
		"gps_code": "CYGB",
		"iata_code": "YGB"
	},
	{
		"ident": "CYGH",
		"name": "Fort Good Hope Airport",
		"latitude_deg": 66.24079895019531,
		"longitude_deg": -128.6510009765625,
		"elevation_ft": 268,
		"continent": "NA",
		"iso_country": "CA",
		"iso_region": "CA-NT",
		"municipality": "Fort Good Hope",
		"gps_code": "CYGH",
		"iata_code": "YGH"
	},
	{
		"ident": "CYGK",
		"name": "Kingston Norman Rogers Airport",
		"latitude_deg": 44.22529983520508,
		"longitude_deg": -76.5969009399414,
		"elevation_ft": 305,
		"continent": "NA",
		"iso_country": "CA",
		"iso_region": "CA-ON",
		"municipality": "Kingston",
		"gps_code": "CYGK",
		"iata_code": "YGK"
	},
	{
		"ident": "CYGL",
		"name": "La Grande Rivière Airport",
		"latitude_deg": 53.625301361083984,
		"longitude_deg": -77.7042007446289,
		"elevation_ft": 639,
		"continent": "NA",
		"iso_country": "CA",
		"iso_region": "CA-QC",
		"municipality": "La Grande Rivière",
		"gps_code": "CYGL",
		"iata_code": "YGL"
	},
	{
		"ident": "CYGO",
		"name": "Gods Lake Narrows Airport",
		"latitude_deg": 54.55889892578125,
		"longitude_deg": -94.49140167236328,
		"elevation_ft": 617,
		"continent": "NA",
		"iso_country": "CA",
		"iso_region": "CA-MB",
		"municipality": "Gods Lake Narrows",
		"gps_code": "CYGO",
		"iata_code": "YGO"
	},
	{
		"ident": "CYGP",
		"name": "Gaspé (Michel-Pouliot) Airport",
		"latitude_deg": 48.7752990723,
		"longitude_deg": -64.4785995483,
		"elevation_ft": 112,
		"continent": "NA",
		"iso_country": "CA",
		"iso_region": "CA-QC",
		"municipality": "Gaspé",
		"gps_code": "CYGP",
		"iata_code": "YGP"
	},
	{
		"ident": "CYGR",
		"name": "Îles-de-la-Madeleine Airport",
		"latitude_deg": 47.42470169067383,
		"longitude_deg": -61.778099060058594,
		"elevation_ft": 35,
		"continent": "NA",
		"iso_country": "CA",
		"iso_region": "CA-QC",
		"municipality": "Îles-de-la-Madeleine",
		"gps_code": "CYGR",
		"iata_code": "YGR"
	},
	{
		"ident": "CYGT",
		"name": "Igloolik Airport",
		"latitude_deg": 69.3647003174,
		"longitude_deg": -81.8161010742,
		"elevation_ft": 174,
		"continent": "NA",
		"iso_country": "CA",
		"iso_region": "CA-NU",
		"municipality": "Igloolik",
		"gps_code": "CYGT",
		"iata_code": "YGT"
	},
	{
		"ident": "CYGW",
		"name": "Kuujjuarapik Airport",
		"latitude_deg": 55.281898498535156,
		"longitude_deg": -77.76529693603516,
		"elevation_ft": 34,
		"continent": "NA",
		"iso_country": "CA",
		"iso_region": "CA-QC",
		"municipality": "Kuujjuarapik",
		"gps_code": "CYGW",
		"iata_code": "YGW"
	},
	{
		"ident": "CYGX",
		"name": "Gillam Airport",
		"latitude_deg": 56.35749816894531,
		"longitude_deg": -94.71060180664062,
		"elevation_ft": 476,
		"continent": "NA",
		"iso_country": "CA",
		"iso_region": "CA-MB",
		"municipality": "Gillam",
		"gps_code": "CYGX",
		"iata_code": "YGX"
	},
	{
		"ident": "CYGZ",
		"name": "Grise Fiord Airport",
		"latitude_deg": 76.4261016846,
		"longitude_deg": -82.90920257570001,
		"elevation_ft": 146,
		"continent": "NA",
		"iso_country": "CA",
		"iso_region": "CA-NU",
		"municipality": "Grise Fiord",
		"gps_code": "CYGZ",
		"iata_code": "YGZ"
	},
	{
		"ident": "CYHA",
		"name": "Quaqtaq Airport",
		"latitude_deg": 61.0463981628418,
		"longitude_deg": -69.6177978515625,
		"elevation_ft": 103,
		"continent": "NA",
		"iso_country": "CA",
		"iso_region": "CA-QC",
		"municipality": "Quaqtaq",
		"gps_code": "CYHA",
		"iata_code": "YQC"
	},
	{
		"ident": "CYHC",
		"name": "Vancouver Harbour Water Aerodrome",
		"latitude_deg": 49.291265,
		"longitude_deg": -123.11717,
		"elevation_ft": "",
		"continent": "NA",
		"iso_country": "CA",
		"iso_region": "CA-BC",
		"municipality": "Vancouver",
		"gps_code": "CYHC",
		"iata_code": "CXH"
	},
	{
		"ident": "CYHD",
		"name": "Dryden Regional Airport",
		"latitude_deg": 49.831699,
		"longitude_deg": -92.744202,
		"elevation_ft": 1354,
		"continent": "NA",
		"iso_country": "CA",
		"iso_region": "CA-ON",
		"municipality": "Dryden",
		"gps_code": "CYHD",
		"iata_code": "YHD"
	},
	{
		"ident": "CYHH",
		"name": "Nemiscau Airport",
		"latitude_deg": 51.69110107421875,
		"longitude_deg": -76.1355972290039,
		"elevation_ft": 802,
		"continent": "NA",
		"iso_country": "CA",
		"iso_region": "CA-QC",
		"municipality": "Nemiscau",
		"gps_code": "CYHH",
		"iata_code": "YNS"
	},
	{
		"ident": "CYHI",
		"name": "Ulukhaktok Holman Airport",
		"latitude_deg": 70.76280212402344,
		"longitude_deg": -117.80599975585938,
		"elevation_ft": 117,
		"continent": "NA",
		"iso_country": "CA",
		"iso_region": "CA-NT",
		"municipality": "Ulukhaktok",
		"gps_code": "CYHI",
		"iata_code": "YHI"
	},
	{
		"ident": "CYHK",
		"name": "Gjoa Haven Airport",
		"latitude_deg": 68.635597229,
		"longitude_deg": -95.84970092770001,
		"elevation_ft": 152,
		"continent": "NA",
		"iso_country": "CA",
		"iso_region": "CA-NU",
		"municipality": "Gjoa Haven",
		"gps_code": "CYHK",
		"iata_code": "YHK"
	},
	{
		"ident": "CYHM",
		"name": "John C. Munro Hamilton International Airport",
		"latitude_deg": 43.173599243199995,
		"longitude_deg": -79.93499755859999,
		"elevation_ft": 780,
		"continent": "NA",
		"iso_country": "CA",
		"iso_region": "CA-ON",
		"municipality": "Hamilton",
		"gps_code": "CYHM",
		"iata_code": "YHM"
	},
	{
		"ident": "CYHO",
		"name": "Hopedale Airport",
		"latitude_deg": 55.448299407958984,
		"longitude_deg": -60.228599548339844,
		"elevation_ft": 39,
		"continent": "NA",
		"iso_country": "CA",
		"iso_region": "CA-NL",
		"municipality": "Hopedale",
		"gps_code": "CYHO",
		"iata_code": "YHO"
	},
	{
		"ident": "CYHR",
		"name": "Chevery Airport",
		"latitude_deg": 50.46889877319336,
		"longitude_deg": -59.63669967651367,
		"elevation_ft": 39,
		"continent": "NA",
		"iso_country": "CA",
		"iso_region": "CA-QC",
		"municipality": "Chevery",
		"gps_code": "CYHR",
		"iata_code": "YHR"
	},
	{
		"ident": "CYHU",
		"name": "Montréal / Saint-Hubert Airport",
		"latitude_deg": 45.5175018311,
		"longitude_deg": -73.4169006348,
		"elevation_ft": 90,
		"continent": "NA",
		"iso_country": "CA",
		"iso_region": "CA-QC",
		"municipality": "Montréal",
		"gps_code": "CYHU",
		"iata_code": "YHU"
	},
	{
		"ident": "CYHY",
		"name": "Hay River / Merlyn Carter Airport",
		"latitude_deg": 60.8396987915,
		"longitude_deg": -115.782997131,
		"elevation_ft": 541,
		"continent": "NA",
		"iso_country": "CA",
		"iso_region": "CA-NT",
		"municipality": "Hay River",
		"gps_code": "CYHY",
		"iata_code": "YHY"
	},
	{
		"ident": "CYHZ",
		"name": "Halifax / Stanfield International Airport",
		"latitude_deg": 44.8807983398,
		"longitude_deg": -63.5085983276,
		"elevation_ft": 477,
		"continent": "NA",
		"iso_country": "CA",
		"iso_region": "CA-NS",
		"municipality": "Halifax",
		"gps_code": "CYHZ",
		"iata_code": "YHZ"
	},
	{
		"ident": "CYIK",
		"name": "Ivujivik Airport",
		"latitude_deg": 62.417301177978516,
		"longitude_deg": -77.92530059814453,
		"elevation_ft": 126,
		"continent": "NA",
		"iso_country": "CA",
		"iso_region": "CA-QC",
		"municipality": "Ivujivik",
		"gps_code": "CYIK",
		"iata_code": "YIK"
	},
	{
		"ident": "CYIO",
		"name": "Pond Inlet Airport",
		"latitude_deg": 72.6832962036,
		"longitude_deg": -77.9666976929,
		"elevation_ft": 181,
		"continent": "NA",
		"iso_country": "CA",
		"iso_region": "CA-NU",
		"municipality": "Pond Inlet",
		"gps_code": "CYIO",
		"iata_code": "YIO"
	},
	{
		"ident": "CYIV",
		"name": "Island Lake Airport",
		"latitude_deg": 53.857200622558594,
		"longitude_deg": -94.65360260009766,
		"elevation_ft": 770,
		"continent": "NA",
		"iso_country": "CA",
		"iso_region": "CA-MB",
		"municipality": "Island Lake",
		"gps_code": "CYIV",
		"iata_code": "YIV"
	},
	{
		"ident": "CYJT",
		"name": "Stephenville Airport",
		"latitude_deg": 48.5442008972168,
		"longitude_deg": -58.54999923706055,
		"elevation_ft": 84,
		"continent": "NA",
		"iso_country": "CA",
		"iso_region": "CA-NL",
		"municipality": "Stephenville",
		"gps_code": "CYJT",
		"iata_code": "YJT"
	},
	{
		"ident": "CYKA",
		"name": "Kamloops Airport",
		"latitude_deg": 50.7022018433,
		"longitude_deg": -120.444000244,
		"elevation_ft": 1133,
		"continent": "NA",
		"iso_country": "CA",
		"iso_region": "CA-BC",
		"municipality": "Kamloops",
		"gps_code": "CYKA",
		"iata_code": "YKA"
	},
	{
		"ident": "CYKD",
		"name": "Aklavik/Freddie Carmichael Airport",
		"latitude_deg": 68.223297,
		"longitude_deg": -135.00599,
		"elevation_ft": 23,
		"continent": "NA",
		"iso_country": "CA",
		"iso_region": "CA-NT",
		"municipality": "Aklavik",
		"gps_code": "CYKD",
		"iata_code": "LAK"
	},
	{
		"ident": "CYKF",
		"name": "Waterloo Airport",
		"latitude_deg": 43.460800170899994,
		"longitude_deg": -80.3786010742,
		"elevation_ft": 1055,
		"continent": "NA",
		"iso_country": "CA",
		"iso_region": "CA-ON",
		"municipality": "Kitchener",
		"gps_code": "CYKF",
		"iata_code": "YKF"
	},
	{
		"ident": "CYKG",
		"name": "Kangiqsujuaq (Wakeham Bay) Airport",
		"latitude_deg": 61.5886001587,
		"longitude_deg": -71.929397583,
		"elevation_ft": 501,
		"continent": "NA",
		"iso_country": "CA",
		"iso_region": "CA-QC",
		"municipality": "Kangiqsujuaq",
		"gps_code": "CYKG",
		"iata_code": "YWB"
	},
	{
		"ident": "CYKL",
		"name": "Schefferville Airport",
		"latitude_deg": 54.805301666259766,
		"longitude_deg": -66.8052978515625,
		"elevation_ft": 1709,
		"continent": "NA",
		"iso_country": "CA",
		"iso_region": "CA-QC",
		"municipality": "Schefferville",
		"gps_code": "CYKL",
		"iata_code": "YKL"
	},
	{
		"ident": "CYKO",
		"name": "Akulivik Airport",
		"latitude_deg": 60.818599700927734,
		"longitude_deg": -78.14859771728516,
		"elevation_ft": 75,
		"continent": "NA",
		"iso_country": "CA",
		"iso_region": "CA-QC",
		"municipality": "Akulivik",
		"gps_code": "CYKO",
		"iata_code": "AKV"
	},
	{
		"ident": "CYKQ",
		"name": "Waskaganish Airport",
		"latitude_deg": 51.47330093383789,
		"longitude_deg": -78.75830078125,
		"elevation_ft": 80,
		"continent": "NA",
		"iso_country": "CA",
		"iso_region": "CA-QC",
		"municipality": "Waskaganish",
		"gps_code": "CYKQ",
		"iata_code": "YKQ"
	},
	{
		"ident": "CYLA",
		"name": "Aupaluk Airport",
		"latitude_deg": 59.29669952392578,
		"longitude_deg": -69.59970092773438,
		"elevation_ft": 119,
		"continent": "NA",
		"iso_country": "CA",
		"iso_region": "CA-QC",
		"municipality": "Aupaluk",
		"gps_code": "CYLA",
		"iata_code": "YPJ"
	},
	{
		"ident": "CYLC",
		"name": "Kimmirut Airport",
		"latitude_deg": 62.8499984741,
		"longitude_deg": -69.88330078119999,
		"elevation_ft": 175,
		"continent": "NA",
		"iso_country": "CA",
		"iso_region": "CA-NU",
		"municipality": "Kimmirut",
		"gps_code": "CYLC",
		"iata_code": "YLC"
	},
	{
		"ident": "CYLH",
		"name": "Lansdowne House Airport",
		"latitude_deg": 52.19559860229492,
		"longitude_deg": -87.93419647216797,
		"elevation_ft": 834,
		"continent": "NA",
		"iso_country": "CA",
		"iso_region": "CA-ON",
		"municipality": "Lansdowne House",
		"gps_code": "CYLH",
		"iata_code": "YLH"
	},
	{
		"ident": "CYLK",
		"name": "Lutselk'e Airport",
		"latitude_deg": 62.418303,
		"longitude_deg": -110.681998,
		"elevation_ft": 596,
		"continent": "NA",
		"iso_country": "CA",
		"iso_region": "CA-NT",
		"municipality": "Lutselk'e",
		"gps_code": "CYLK",
		"iata_code": "YSG"
	},
	{
		"ident": "CYLL",
		"name": "Lloydminster Airport",
		"latitude_deg": 53.309200286865234,
		"longitude_deg": -110.072998046875,
		"elevation_ft": 2193,
		"continent": "NA",
		"iso_country": "CA",
		"iso_region": "CA-AB",
		"municipality": "Lloydminster",
		"gps_code": "CYLL",
		"iata_code": "YLL"
	},
	{
		"ident": "CYLU",
		"name": "Kangiqsualujjuaq (Georges River) Airport",
		"latitude_deg": 58.71139907836914,
		"longitude_deg": -65.9927978515625,
		"elevation_ft": 215,
		"continent": "NA",
		"iso_country": "CA",
		"iso_region": "CA-QC",
		"municipality": "Kangiqsualujjuaq",
		"gps_code": "CYLU",
		"iata_code": "XGR"
	},
	{
		"ident": "CYLW",
		"name": "Kelowna International Airport",
		"latitude_deg": 49.9561004639,
		"longitude_deg": -119.377998352,
		"elevation_ft": 1421,
		"continent": "NA",
		"iso_country": "CA",
		"iso_region": "CA-BC",
		"municipality": "Kelowna",
		"gps_code": "CYLW",
		"iata_code": "YLW"
	},
	{
		"ident": "CYMH",
		"name": "Mary's Harbour Airport",
		"latitude_deg": 52.302799224853516,
		"longitude_deg": -55.847198486328125,
		"elevation_ft": 38,
		"continent": "NA",
		"iso_country": "CA",
		"iso_region": "CA-NL",
		"municipality": "Mary's Harbour",
		"gps_code": "CYMH",
		"iata_code": "YMH"
	},
	{
		"ident": "CYMM",
		"name": "Fort McMurray Airport",
		"latitude_deg": 56.653301239,
		"longitude_deg": -111.222000122,
		"elevation_ft": 1211,
		"continent": "NA",
		"iso_country": "CA",
		"iso_region": "CA-AB",
		"municipality": "Fort McMurray",
		"gps_code": "CYMM",
		"iata_code": "YMM"
	},
	{
		"ident": "CYMO",
		"name": "Moosonee Airport",
		"latitude_deg": 51.291099548339844,
		"longitude_deg": -80.60780334472656,
		"elevation_ft": 30,
		"continent": "NA",
		"iso_country": "CA",
		"iso_region": "CA-ON",
		"municipality": "Moosonee",
		"gps_code": "CYMO",
		"iata_code": "YMO"
	},
	{
		"ident": "CYMT",
		"name": "Chapais Airport",
		"latitude_deg": 49.77190017700195,
		"longitude_deg": -74.5280990600586,
		"elevation_ft": 1270,
		"continent": "NA",
		"iso_country": "CA",
		"iso_region": "CA-QC",
		"municipality": "Chibougamau",
		"gps_code": "CYMT",
		"iata_code": "YMT"
	},
	{
		"ident": "CYMU",
		"name": "Umiujaq Airport",
		"latitude_deg": 56.53609848022461,
		"longitude_deg": -76.51830291748047,
		"elevation_ft": 250,
		"continent": "NA",
		"iso_country": "CA",
		"iso_region": "CA-QC",
		"municipality": "Umiujaq",
		"gps_code": "CYMU",
		"iata_code": "YUD"
	},
	{
		"ident": "CYNA",
		"name": "Natashquan Airport",
		"latitude_deg": 50.189998626708984,
		"longitude_deg": -61.78919982910156,
		"elevation_ft": 39,
		"continent": "NA",
		"iso_country": "CA",
		"iso_region": "CA-QC",
		"municipality": "Natashquan",
		"gps_code": "CYNA",
		"iata_code": "YNA"
	},
	{
		"ident": "CYNC",
		"name": "Wemindji Airport",
		"latitude_deg": 53.01060104370117,
		"longitude_deg": -78.83110046386719,
		"elevation_ft": 66,
		"continent": "NA",
		"iso_country": "CA",
		"iso_region": "CA-QC",
		"municipality": "Wemindji",
		"gps_code": "CYNC",
		"iata_code": "YNC"
	},
	{
		"ident": "CYND",
		"name": "Ottawa / Gatineau Airport",
		"latitude_deg": 45.521702,
		"longitude_deg": -75.563599,
		"elevation_ft": 211,
		"continent": "NA",
		"iso_country": "CA",
		"iso_region": "CA-QC",
		"municipality": "Gatineau",
		"gps_code": "CYND",
		"iata_code": "YND"
	},
	{
		"ident": "CYNE",
		"name": "Norway House Airport",
		"latitude_deg": 53.95830154418945,
		"longitude_deg": -97.84420013427734,
		"elevation_ft": 734,
		"continent": "NA",
		"iso_country": "CA",
		"iso_region": "CA-MB",
		"municipality": "Norway House",
		"gps_code": "CYNE",
		"iata_code": "YNE"
	},
	{
		"ident": "CYNL",
		"name": "Points North Landing Airport",
		"latitude_deg": 58.27669906616211,
		"longitude_deg": -104.08200073242188,
		"elevation_ft": 1605,
		"continent": "NA",
		"iso_country": "CA",
		"iso_region": "CA-SK",
		"municipality": "Points North Landing",
		"gps_code": "CYNL",
		"iata_code": "YNL"
	},
	{
		"ident": "CYOC",
		"name": "Old Crow Airport",
		"latitude_deg": 67.57060241699219,
		"longitude_deg": -139.83900451660156,
		"elevation_ft": 824,
		"continent": "NA",
		"iso_country": "CA",
		"iso_region": "CA-YT",
		"municipality": "Old Crow",
		"gps_code": "CYOC",
		"iata_code": "YOC"
	},
	{
		"ident": "CYOH",
		"name": "Oxford House Airport",
		"latitude_deg": 54.93330001831055,
		"longitude_deg": -95.27890014648438,
		"elevation_ft": 663,
		"continent": "NA",
		"iso_country": "CA",
		"iso_region": "CA-MB",
		"municipality": "Oxford House",
		"gps_code": "CYOH",
		"iata_code": "YOH"
	},
	{
		"ident": "CYOJ",
		"name": "High Level Airport",
		"latitude_deg": 58.62139892578125,
		"longitude_deg": -117.16500091552734,
		"elevation_ft": 1110,
		"continent": "NA",
		"iso_country": "CA",
		"iso_region": "CA-AB",
		"municipality": "High Level",
		"gps_code": "CYOJ",
		"iata_code": "YOJ"
	},
	{
		"ident": "CYOP",
		"name": "Rainbow Lake Airport",
		"latitude_deg": 58.49140167236328,
		"longitude_deg": -119.40799713134766,
		"elevation_ft": 1759,
		"continent": "NA",
		"iso_country": "CA",
		"iso_region": "CA-AB",
		"municipality": "Rainbow Lake",
		"gps_code": "CYOP",
		"iata_code": "YOP"
	},
	{
		"ident": "CYOW",
		"name": "Ottawa Macdonald-Cartier International Airport",
		"latitude_deg": 45.3224983215332,
		"longitude_deg": -75.66919708251953,
		"elevation_ft": 374,
		"continent": "NA",
		"iso_country": "CA",
		"iso_region": "CA-ON",
		"municipality": "Ottawa",
		"gps_code": "CYOW",
		"iata_code": "YOW"
	},
	{
		"ident": "CYPA",
		"name": "Prince Albert Glass Field",
		"latitude_deg": 53.214199066199996,
		"longitude_deg": -105.672996521,
		"elevation_ft": 1405,
		"continent": "NA",
		"iso_country": "CA",
		"iso_region": "CA-SK",
		"municipality": "Prince Albert",
		"gps_code": "CYPA",
		"iata_code": "YPA"
	},
	{
		"ident": "CYPC",
		"name": "Paulatuk (Nora Aliqatchialuk Ruben) Airport",
		"latitude_deg": 69.3608381154,
		"longitude_deg": -124.075469971,
		"elevation_ft": 15,
		"continent": "NA",
		"iso_country": "CA",
		"iso_region": "CA-NT",
		"municipality": "Paulatuk",
		"gps_code": "CYPC",
		"iata_code": "YPC"
	},
	{
		"ident": "CYPE",
		"name": "Peace River Airport",
		"latitude_deg": 56.226898,
		"longitude_deg": -117.446999,
		"elevation_ft": 1873,
		"continent": "NA",
		"iso_country": "CA",
		"iso_region": "CA-AB",
		"municipality": "Peace River",
		"gps_code": "CYPE",
		"iata_code": "YPE"
	},
	{
		"ident": "CYPH",
		"name": "Inukjuak Airport",
		"latitude_deg": 58.471900939941406,
		"longitude_deg": -78.07689666748047,
		"elevation_ft": 83,
		"continent": "NA",
		"iso_country": "CA",
		"iso_region": "CA-QC",
		"municipality": "Inukjuak",
		"gps_code": "CYPH",
		"iata_code": "YPH"
	},
	{
		"ident": "CYPL",
		"name": "Pickle Lake Airport",
		"latitude_deg": 51.4463996887207,
		"longitude_deg": -90.21420288085938,
		"elevation_ft": 1267,
		"continent": "NA",
		"iso_country": "CA",
		"iso_region": "CA-ON",
		"municipality": "Pickle Lake",
		"gps_code": "CYPL",
		"iata_code": "YPL"
	},
	{
		"ident": "CYPM",
		"name": "Pikangikum Airport",
		"latitude_deg": 51.819698333740234,
		"longitude_deg": -93.97329711914062,
		"elevation_ft": 1114,
		"continent": "NA",
		"iso_country": "CA",
		"iso_region": "CA-ON",
		"municipality": "Pikangikum",
		"gps_code": "CYPM",
		"iata_code": "YPM"
	},
	{
		"ident": "CYPO",
		"name": "Peawanuck Airport",
		"latitude_deg": 54.98809814453125,
		"longitude_deg": -85.44329833984375,
		"elevation_ft": 173,
		"continent": "NA",
		"iso_country": "CA",
		"iso_region": "CA-ON",
		"municipality": "Peawanuck",
		"gps_code": "CYPO",
		"iata_code": "YPO"
	},
	{
		"ident": "CYPR",
		"name": "Prince Rupert Airport",
		"latitude_deg": 54.286098480199996,
		"longitude_deg": -130.445007324,
		"elevation_ft": 116,
		"continent": "NA",
		"iso_country": "CA",
		"iso_region": "CA-BC",
		"municipality": "Prince Rupert",
		"gps_code": "CYPR",
		"iata_code": "YPR"
	},
	{
		"ident": "CYPW",
		"name": "Powell River Airport",
		"latitude_deg": 49.83420181274414,
		"longitude_deg": -124.5,
		"elevation_ft": 425,
		"continent": "NA",
		"iso_country": "CA",
		"iso_region": "CA-BC",
		"municipality": "Powell River",
		"gps_code": "CYPW",
		"iata_code": "YPW"
	},
	{
		"ident": "CYPY",
		"name": "Fort Chipewyan Airport",
		"latitude_deg": 58.7672004699707,
		"longitude_deg": -111.11699676513672,
		"elevation_ft": 761,
		"continent": "NA",
		"iso_country": "CA",
		"iso_region": "CA-AB",
		"municipality": "Fort Chipewyan",
		"gps_code": "CYPY",
		"iata_code": "YPY"
	},
	{
		"ident": "CYQB",
		"name": "Quebec Jean Lesage International Airport",
		"latitude_deg": 46.7911,
		"longitude_deg": -71.393303,
		"elevation_ft": 244,
		"continent": "NA",
		"iso_country": "CA",
		"iso_region": "CA-QC",
		"municipality": "Quebec",
		"gps_code": "CYQB",
		"iata_code": "YQB"
	},
	{
		"ident": "CYQD",
		"name": "The Pas Airport",
		"latitude_deg": 53.97140121459961,
		"longitude_deg": -101.09100341796875,
		"elevation_ft": 887,
		"continent": "NA",
		"iso_country": "CA",
		"iso_region": "CA-MB",
		"municipality": "The Pas",
		"gps_code": "CYQD",
		"iata_code": "YQD"
	},
	{
		"ident": "CYQG",
		"name": "Windsor Airport",
		"latitude_deg": 42.27560043334961,
		"longitude_deg": -82.95559692382812,
		"elevation_ft": 622,
		"continent": "NA",
		"iso_country": "CA",
		"iso_region": "CA-ON",
		"municipality": "Windsor",
		"gps_code": "CYQG",
		"iata_code": "YQG"
	},
	{
		"ident": "CYQK",
		"name": "Kenora Airport",
		"latitude_deg": 49.788299560546875,
		"longitude_deg": -94.36309814453125,
		"elevation_ft": 1332,
		"continent": "NA",
		"iso_country": "CA",
		"iso_region": "CA-ON",
		"municipality": "Kenora",
		"gps_code": "CYQK",
		"iata_code": "YQK"
	},
	{
		"ident": "CYQL",
		"name": "Lethbridge County Airport",
		"latitude_deg": 49.6302986145,
		"longitude_deg": -112.800003052,
		"elevation_ft": 3048,
		"continent": "NA",
		"iso_country": "CA",
		"iso_region": "CA-AB",
		"municipality": "Lethbridge",
		"gps_code": "CYQL",
		"iata_code": "YQL"
	},
	{
		"ident": "CYQM",
		"name": "Greater Moncton Roméo LeBlanc International Airport",
		"latitude_deg": 46.112202,
		"longitude_deg": -64.678596,
		"elevation_ft": 232,
		"continent": "NA",
		"iso_country": "CA",
		"iso_region": "CA-NB",
		"municipality": "Moncton",
		"gps_code": "CYQM",
		"iata_code": "YQM"
	},
	{
		"ident": "CYQN",
		"name": "Nakina Airport",
		"latitude_deg": 50.18280029296875,
		"longitude_deg": -86.69640350341797,
		"elevation_ft": 1057,
		"continent": "NA",
		"iso_country": "CA",
		"iso_region": "CA-ON",
		"municipality": "Nakina",
		"gps_code": "CYQN",
		"iata_code": "YQN"
	},
	{
		"ident": "CYQQ",
		"name": "Comox Valley Airport / CFB Comox",
		"latitude_deg": 49.7108,
		"longitude_deg": -124.887001,
		"elevation_ft": 84,
		"continent": "NA",
		"iso_country": "CA",
		"iso_region": "CA-BC",
		"municipality": "Comox",
		"gps_code": "CYQQ",
		"iata_code": "YQQ"
	},
	{
		"ident": "CYQR",
		"name": "Regina International Airport",
		"latitude_deg": 50.43190002441406,
		"longitude_deg": -104.66600036621094,
		"elevation_ft": 1894,
		"continent": "NA",
		"iso_country": "CA",
		"iso_region": "CA-SK",
		"municipality": "Regina",
		"gps_code": "CYQR",
		"iata_code": "YQR"
	},
	{
		"ident": "CYQT",
		"name": "Thunder Bay Airport",
		"latitude_deg": 48.37189865112305,
		"longitude_deg": -89.32389831542969,
		"elevation_ft": 653,
		"continent": "NA",
		"iso_country": "CA",
		"iso_region": "CA-ON",
		"municipality": "Thunder Bay",
		"gps_code": "CYQT",
		"iata_code": "YQT"
	},
	{
		"ident": "CYQU",
		"name": "Grande Prairie Airport",
		"latitude_deg": 55.1796989441,
		"longitude_deg": -118.885002136,
		"elevation_ft": 2195,
		"continent": "NA",
		"iso_country": "CA",
		"iso_region": "CA-AB",
		"municipality": "Grande Prairie",
		"gps_code": "CYQU",
		"iata_code": "YQU"
	},
	{
		"ident": "CYQX",
		"name": "Gander International Airport",
		"latitude_deg": 48.9369010925293,
		"longitude_deg": -54.56809997558594,
		"elevation_ft": 496,
		"continent": "NA",
		"iso_country": "CA",
		"iso_region": "CA-NL",
		"municipality": "Gander",
		"gps_code": "CYQX",
		"iata_code": "YQX"
	},
	{
		"ident": "CYQY",
		"name": "Sydney / J.A. Douglas McCurdy Airport",
		"latitude_deg": 46.1614,
		"longitude_deg": -60.047798,
		"elevation_ft": 203,
		"continent": "NA",
		"iso_country": "CA",
		"iso_region": "CA-NS",
		"municipality": "Sydney",
		"gps_code": "CYQY",
		"iata_code": "YQY"
	},
	{
		"ident": "CYQZ",
		"name": "Quesnel Airport",
		"latitude_deg": 53.026100158691406,
		"longitude_deg": -122.51000213623047,
		"elevation_ft": 1789,
		"continent": "NA",
		"iso_country": "CA",
		"iso_region": "CA-BC",
		"municipality": "Quesnel",
		"gps_code": "CYQZ",
		"iata_code": "YQZ"
	},
	{
		"ident": "CYRA",
		"name": "Rae Lakes Airport",
		"latitude_deg": 64.11609649658203,
		"longitude_deg": -117.30999755859375,
		"elevation_ft": 723,
		"continent": "NA",
		"iso_country": "CA",
		"iso_region": "CA-NT",
		"municipality": "Gamètì",
		"gps_code": "CYRA",
		"iata_code": "YRA"
	},
	{
		"ident": "CYRB",
		"name": "Resolute Bay Airport",
		"latitude_deg": 74.7169036865,
		"longitude_deg": -94.9693984985,
		"elevation_ft": 215,
		"continent": "NA",
		"iso_country": "CA",
		"iso_region": "CA-NU",
		"municipality": "Resolute Bay",
		"gps_code": "CYRB",
		"iata_code": "YRB"
	},
	{
		"ident": "CYRJ",
		"name": "Roberval Airport",
		"latitude_deg": 48.52000045776367,
		"longitude_deg": -72.2656021118164,
		"elevation_ft": 586,
		"continent": "NA",
		"iso_country": "CA",
		"iso_region": "CA-QC",
		"municipality": "Roberval",
		"gps_code": "CYRJ",
		"iata_code": "YRJ"
	},
	{
		"ident": "CYRL",
		"name": "Red Lake Airport",
		"latitude_deg": 51.066898345947266,
		"longitude_deg": -93.79309844970703,
		"elevation_ft": 1265,
		"continent": "NA",
		"iso_country": "CA",
		"iso_region": "CA-ON",
		"municipality": "Red Lake",
		"gps_code": "CYRL",
		"iata_code": "YRL"
	},
	{
		"ident": "CYRT",
		"name": "Rankin Inlet Airport",
		"latitude_deg": 62.8114013672,
		"longitude_deg": -92.1157989502,
		"elevation_ft": 94,
		"continent": "NA",
		"iso_country": "CA",
		"iso_region": "CA-NU",
		"municipality": "Rankin Inlet",
		"gps_code": "CYRT",
		"iata_code": "YRT"
	},
	{
		"ident": "CYSB",
		"name": "Sudbury Airport",
		"latitude_deg": 46.625,
		"longitude_deg": -80.79889678955078,
		"elevation_ft": 1141,
		"continent": "NA",
		"iso_country": "CA",
		"iso_region": "CA-ON",
		"municipality": "Sudbury",
		"gps_code": "CYSB",
		"iata_code": "YSB"
	},
	{
		"ident": "CYSF",
		"name": "Stony Rapids Airport",
		"latitude_deg": 59.250301361083984,
		"longitude_deg": -105.84100341796875,
		"elevation_ft": 805,
		"continent": "NA",
		"iso_country": "CA",
		"iso_region": "CA-SK",
		"municipality": "Stony Rapids",
		"gps_code": "CYSF",
		"iata_code": "YSF"
	},
	{
		"ident": "CYSJ",
		"name": "Saint John Airport",
		"latitude_deg": 45.31610107421875,
		"longitude_deg": -65.89029693603516,
		"elevation_ft": 357,
		"continent": "NA",
		"iso_country": "CA",
		"iso_region": "CA-NB",
		"municipality": "Saint John",
		"gps_code": "CYSJ",
		"iata_code": "YSJ"
	},
	{
		"ident": "CYSK",
		"name": "Sanikiluaq Airport",
		"latitude_deg": 56.5377998352,
		"longitude_deg": -79.2466964722,
		"elevation_ft": 104,
		"continent": "NA",
		"iso_country": "CA",
		"iso_region": "CA-NU",
		"municipality": "Sanikiluaq",
		"gps_code": "CYSK",
		"iata_code": "YSK"
	},
	{
		"ident": "CYSM",
		"name": "Fort Smith Airport",
		"latitude_deg": 60.020301818847656,
		"longitude_deg": -111.96199798583984,
		"elevation_ft": 671,
		"continent": "NA",
		"iso_country": "CA",
		"iso_region": "CA-NT",
		"municipality": "Fort Smith",
		"gps_code": "CYSM",
		"iata_code": "YSM"
	},
	{
		"ident": "CYST",
		"name": "St. Theresa Point Airport",
		"latitude_deg": 53.84560012817383,
		"longitude_deg": -94.85189819335938,
		"elevation_ft": 773,
		"continent": "NA",
		"iso_country": "CA",
		"iso_region": "CA-MB",
		"municipality": "St. Theresa Point",
		"gps_code": "CYST",
		"iata_code": "YST"
	},
	{
		"ident": "CYSY",
		"name": "Sachs Harbour (David Nasogaluak Jr. Saaryuaq) Airport",
		"latitude_deg": 71.9938964844,
		"longitude_deg": -125.242996216,
		"elevation_ft": 282,
		"continent": "NA",
		"iso_country": "CA",
		"iso_region": "CA-NT",
		"municipality": "Sachs Harbour",
		"gps_code": "CYSY",
		"iata_code": "YSY"
	},
	{
		"ident": "CYTE",
		"name": "Cape Dorset Airport",
		"latitude_deg": 64.2300033569,
		"longitude_deg": -76.5267028809,
		"elevation_ft": 164,
		"continent": "NA",
		"iso_country": "CA",
		"iso_region": "CA-NU",
		"municipality": "Cape Dorset",
		"gps_code": "CYTE",
		"iata_code": "YTE"
	},
	{
		"ident": "CYTF",
		"name": "Alma Airport",
		"latitude_deg": 48.50889968869999,
		"longitude_deg": -71.64189910889999,
		"elevation_ft": 445,
		"continent": "NA",
		"iso_country": "CA",
		"iso_region": "CA-QC",
		"municipality": "Alma",
		"gps_code": "CYTF",
		"iata_code": "YTF"
	},
	{
		"ident": "CYTH",
		"name": "Thompson Airport",
		"latitude_deg": 55.80110168457031,
		"longitude_deg": -97.86419677734375,
		"elevation_ft": 729,
		"continent": "NA",
		"iso_country": "CA",
		"iso_region": "CA-MB",
		"municipality": "Thompson",
		"gps_code": "CYTH",
		"iata_code": "YTH"
	},
	{
		"ident": "CYTL",
		"name": "Big Trout Lake Airport",
		"latitude_deg": 53.81779861450195,
		"longitude_deg": -89.89689636230469,
		"elevation_ft": 729,
		"continent": "NA",
		"iso_country": "CA",
		"iso_region": "CA-ON",
		"municipality": "Big Trout Lake",
		"gps_code": "CYTL",
		"iata_code": "YTL"
	},
	{
		"ident": "CYTS",
		"name": "Timmins/Victor M. Power",
		"latitude_deg": 48.569698333699996,
		"longitude_deg": -81.376701355,
		"elevation_ft": 967,
		"continent": "NA",
		"iso_country": "CA",
		"iso_region": "CA-ON",
		"municipality": "Timmins",
		"gps_code": "CYTS",
		"iata_code": "YTS"
	},
	{
		"ident": "CYTZ",
		"name": "Billy Bishop Toronto City Centre Airport",
		"latitude_deg": 43.627499,
		"longitude_deg": -79.396202,
		"elevation_ft": 252,
		"continent": "NA",
		"iso_country": "CA",
		"iso_region": "CA-ON",
		"municipality": "Toronto",
		"gps_code": "CYTZ",
		"iata_code": "YTZ"
	},
	{
		"ident": "CYUB",
		"name": "Tuktoyaktuk Airport",
		"latitude_deg": 69.43329620361328,
		"longitude_deg": -133.0260009765625,
		"elevation_ft": 15,
		"continent": "NA",
		"iso_country": "CA",
		"iso_region": "CA-NT",
		"municipality": "Tuktoyaktuk",
		"gps_code": "CYUB",
		"iata_code": "YUB"
	},